stop_id,stop_code,stop_name,stop_lat,stop_lon,stop_url
3220,2470011-08702,"Wesoła Dzierżonia",50.1912490900,19.1139948100,"https://rj.transportgzm.pl/v2/rozklady/przystanek/2470011-08702/"
552,2471011-01601,"Dąbrówka Wielka Przychodnia Zdrowia",50.3464494600,18.9992069900,"https://rj.transportgzm.pl/v2/rozklady/przystanek/2471011-01601/"
8560,2463011-02201,"Chorzów Szkoła Niewidomych",50.2887357300,18.9472794300,"https://rj.transportgzm.pl/v2/rozklady/przystanek/2463011-02201/"
837,GR01201,"granica BĘDZ - CZEL (Wojkowicka)",50.3392772965,19.0687729386,"https://rj.transportgzm.pl/v2/rozklady/przystanek/GR01201/"
1663,2465011-08501,"Marianki",50.3658629600,19.1877770200,"https://rj.transportgzm.pl/v2/rozklady/przystanek/2465011-08501/"
11151,2475011-16302,"Zagórze Kosynierów Osiedle",50.3039924900,19.1969132400,"https://rj.transportgzm.pl/v2/rozklady/przystanek/2475011-16302/"
11732,2478011-03401t,"Biskupice Schronisko nż",50.3305833700,18.8556766300,"https://rj.transportgzm.pl/v2/rozklady/przystanek/2478011-03401t/"
6195,2477011-00601,"Czułów Narcyzów",50.1419710100,18.9930164600,"https://rj.transportgzm.pl/v2/rozklady/przystanek/2477011-00601/"
3051,2401011-06302,"Łagisza Cmentarz nż",50.3524597400,19.1448059700,"https://rj.transportgzm.pl/v2/rozklady/przystanek/2401011-06302/"
100,2478011-08602,"Zabrze Aleja Korfantego",50.3186617700,18.7743365700,"https://rj.transportgzm.pl/v2/rozklady/przystanek/2478011-08602/"
2333,2401042-01901,"Podsączów",50.4335772000,19.0424334700,"https://rj.transportgzm.pl/v2/rozklady/przystanek/2401042-01901/"
3846,2413062-03702,"Pyrzowice Wolności",50.4678166800,19.0717232000,"https://rj.transportgzm.pl/v2/rozklady/przystanek/2413062-03702/"
5554,2401011-12201,"Będzin Johnson Electric",50.3130597100,19.1514885700,"https://rj.transportgzm.pl/v2/rozklady/przystanek/2401011-12201/"
14,2475011-14601,"Środula Chemiczna",50.2956726400,19.1435050900,"https://rj.transportgzm.pl/v2/rozklady/przystanek/2475011-14601/"
11163,2405032-03202,"Chudów Jaśminowa nż",50.2175126400,18.7752103500,"https://rj.transportgzm.pl/v2/rozklady/przystanek/2405032-03202/"
4026,2401052-04102,"Przeczyce Targowa",50.4371485100,19.1579830400,"https://rj.transportgzm.pl/v2/rozklady/przystanek/2401052-04102/"
2350,2401075-05301,"Podwarpie Bar",50.4278199300,19.2122816800,"https://rj.transportgzm.pl/v2/rozklady/przystanek/2401075-05301/"
1218,2470011-00302,"Bończyk Kościół",50.2429301100,19.1120528900,"https://rj.transportgzm.pl/v2/rozklady/przystanek/2470011-00302/"
5385,2475011-10203,"Porąbka Wiejska",50.2874472900,19.2220187100,"https://rj.transportgzm.pl/v2/rozklady/przystanek/2475011-10203/"
1929,2469011-18901,"Ochojec Ziołowa",50.2132450800,18.9886712800,"https://rj.transportgzm.pl/v2/rozklady/przystanek/2469011-18901/"
10573,2469011-23603,"Podlesie PKP",50.1826965600,18.9598536200,"https://rj.transportgzm.pl/v2/rozklady/przystanek/2469011-23603/"
7133,2469011-03702,"Dąbrówka Mała Nowosam nż",50.2790303400,19.0817067800,"https://rj.transportgzm.pl/v2/rozklady/przystanek/2469011-03702/"
2718,2475011-14401,"Stare Maczki Pętla",50.2610069000,19.2912840800,"https://rj.transportgzm.pl/v2/rozklady/przystanek/2475011-14401/"
2391,2475011-09502,"Porąbka Kopalnia",50.2728407900,19.2232036300,"https://rj.transportgzm.pl/v2/rozklady/przystanek/2475011-09502/"
11051,2463011-12402,"Chorzów Batory Odrzańska",50.2743223400,18.9476012900,"https://rj.transportgzm.pl/v2/rozklady/przystanek/2463011-12402/"
970,GR16901,"granica RUDA - ŚWIĘ (Lipiny)",50.3057168180,18.8882663373,"https://rj.transportgzm.pl/v2/rozklady/przystanek/GR16901/"
1477,2471011-02501,"Kozłowa Góra Tarnogórska",50.4072488600,18.9474081700,"https://rj.transportgzm.pl/v2/rozklady/przystanek/2471011-02501/"
3536,2474011-03502,"Siemianowice Kościół",50.3014909100,19.0337431200,"https://rj.transportgzm.pl/v2/rozklady/przystanek/2474011-03502/"
2328,2469011-23902,"Podlesie Uniczowska",50.1771867000,18.9666509600,"https://rj.transportgzm.pl/v2/rozklady/przystanek/2469011-23902/"
8133,2405032-02901,"Paniówki Darwina nż",50.2221104500,18.7875715300,"https://rj.transportgzm.pl/v2/rozklady/przystanek/2405032-02901/"
4912,2469011-25501,"Szopienice Szpital Geriatryczny",50.2656981300,19.0924572900,"https://rj.transportgzm.pl/v2/rozklady/przystanek/2469011-25501/"
3569,2413041-06902,"Tarnowskie Góry Bytomska",50.4438543800,18.8603865800,"https://rj.transportgzm.pl/v2/rozklady/przystanek/2413041-06902/"
4944,2401075-01401,"Gołuchowice nż",50.4408179400,19.2798304300,"https://rj.transportgzm.pl/v2/rozklady/przystanek/2401075-01401/"
6807,2414042-02616,"Świerczyniec Barwna nż",50.0713852300,19.0465855300,"https://rj.transportgzm.pl/v2/rozklady/przystanek/2414042-02616/"
3839,2413062-00102,"Niezdara",50.4503243100,18.9894223000,"https://rj.transportgzm.pl/v2/rozklady/przystanek/2413062-00102/"
11088,2413062-02402,"Ożarowice Zubrza",50.4707052700,19.0499114700,"https://rj.transportgzm.pl/v2/rozklady/przystanek/2413062-02402/"
5338,2470011-10501,"Larysz Storczyków nż",50.1973482800,19.1197347400,"https://rj.transportgzm.pl/v2/rozklady/przystanek/2470011-10501/"
2316,2465011-09902,"Podbuczyny Cmentarz",50.4096427000,19.2506801800,"https://rj.transportgzm.pl/v2/rozklady/przystanek/2465011-09902/"
4701,2466011-21202t,"Maciejów Knurowska",50.3053599800,18.7359535400,"https://rj.transportgzm.pl/v2/rozklady/przystanek/2466011-21202t/"
1046,2401011-05002,"Grodziec Poczta",50.3513410500,19.0828060800,"https://rj.transportgzm.pl/v2/rozklady/przystanek/2401011-05002/"
11539,2478011-00702t,"Biskupice Kościół",50.3197438600,18.8215696600,"https://rj.transportgzm.pl/v2/rozklady/przystanek/2478011-00702t/"
3197,2401011-09302,"Warpie Krakowska nż",50.3159325500,19.1582223800,"https://rj.transportgzm.pl/v2/rozklady/przystanek/2401011-09302/"
6504,2408011-00103,"Łaziska Górne Ratusz",50.1493978300,18.8394207600,"https://rj.transportgzm.pl/v2/rozklady/przystanek/2408011-00103/"
1947,2465011-08702,"Okradzionów Białej Przemszy",50.3421738800,19.3759346000,"https://rj.transportgzm.pl/v2/rozklady/przystanek/2465011-08702/"
7370,2474011-07202,"Siemianowice Fabryczna Zakłady nż",50.2958272500,19.0358352400,"https://rj.transportgzm.pl/v2/rozklady/przystanek/2474011-07202/"
143,2463011-01202,"Chorzów Batory Klonowa",50.2632356900,18.9364433000,"https://rj.transportgzm.pl/v2/rozklady/przystanek/2463011-01202/"
6090,2475011-20603,"Bobrek Innowacyjna",50.2613930100,19.1936850800,"https://rj.transportgzm.pl/v2/rozklady/przystanek/2475011-20603/"
8194,2478011-15802,"Mikulczyce KSSE Goduli",50.3513684300,18.8010239300,"https://rj.transportgzm.pl/v2/rozklady/przystanek/2478011-15802/"
2535,2413031-01201,"Rojca Nieznanego Żołnierza",50.3870426300,18.8990914800,"https://rj.transportgzm.pl/v2/rozklady/przystanek/2413031-01201/"
1802,2469011-17002,"Murcki Tartaczna nż",50.1941202000,19.0334856300,"https://rj.transportgzm.pl/v2/rozklady/przystanek/2469011-17002/"
1607,2471011-03901,"Piekary Lipka",50.3994258000,18.9470970400,"https://rj.transportgzm.pl/v2/rozklady/przystanek/2471011-03901/"
3296,2472011-10602,"Wirek Mrówcza Górka",50.2585307900,18.8700163300,"https://rj.transportgzm.pl/v2/rozklady/przystanek/2472011-10602/"
10479,2463011-05531,"Chorzów Sobieskiego",50.2945551500,18.9515459800,"https://rj.transportgzm.pl/v2/rozklady/przystanek/2463011-05531/"
7887,2413082-01402,"Boruszowice Cmentarz",50.5166463100,18.7736940700,"https://rj.transportgzm.pl/v2/rozklady/przystanek/2413082-01402/"
1180,2414031-03101,"Hołdunów Targowisko",50.1420180100,19.1337641900,"https://rj.transportgzm.pl/v2/rozklady/przystanek/2414031-03101/"
1123,2472011-03201,"Halemba Energetyków",50.2423674700,18.8301956400,"https://rj.transportgzm.pl/v2/rozklady/przystanek/2472011-03201/"
2252,2401021-02902,"Piaski Skrzyżowanie",50.3023406800,19.0977084400,"https://rj.transportgzm.pl/v2/rozklady/przystanek/2401021-02902/"
6204,2477011-04402,"Suble Zagrodowa",50.1168910000,18.9642090000,"https://rj.transportgzm.pl/v2/rozklady/przystanek/2477011-04402/"
11164,2405032-03201,"Chudów Jaśminowa nż",50.2171284400,18.7750860300,"https://rj.transportgzm.pl/v2/rozklady/przystanek/2405032-03201/"
7169,2469011-01202A,"Katowice Sądowa",50.2586306600,19.0110087100,"https://rj.transportgzm.pl/v2/rozklady/przystanek/2469011-01202A/"
2551,2478011-07205,"Rokitnica Pętla",50.3636759000,18.8016709600,"https://rj.transportgzm.pl/v2/rozklady/przystanek/2478011-07205/"
4594,2462011-07602,"Łagiewniki Krzyżowa",50.3275800600,18.9282035600,"https://rj.transportgzm.pl/v2/rozklady/przystanek/2462011-07602/"
11042,2408052-01302,"Gostyń Motyla",50.1064050000,18.8607440000,"https://rj.transportgzm.pl/v2/rozklady/przystanek/2408052-01302/"
2197,2469011-11101,"Kokociniec Ogrodowa",50.2344115500,18.9550363800,"https://rj.transportgzm.pl/v2/rozklady/przystanek/2469011-11101/"
11252,2469011-00801,"Katowice Piotra Skargi",50.2613198100,19.0199565600,"https://rj.transportgzm.pl/v2/rozklady/przystanek/2469011-00801/"
10576,2469011-40803,"Brynów W. Pola",50.2426876500,18.9823734500,"https://rj.transportgzm.pl/v2/rozklady/przystanek/2469011-40803/"
5387,2475011-18702,"Klimontów Ogródki Działkowe",50.2746640000,19.2022700000,"https://rj.transportgzm.pl/v2/rozklady/przystanek/2475011-18702/"
2374,2466011-16001,"Gliwice Radiostacja",50.3143358600,18.6930423900,"https://rj.transportgzm.pl/v2/rozklady/przystanek/2466011-16001/"
489,2401062-00702,"Dąbie Chrobakowe 30 nż",50.3954935500,19.1602796300,"https://rj.transportgzm.pl/v2/rozklady/przystanek/2401062-00702/"
11696,2478011-01502t,"Biskupice Ziemska nż",50.3278586000,18.8336017100,"https://rj.transportgzm.pl/v2/rozklady/przystanek/2478011-01502t/"
9108,2463011-06702,"Chorzów Szpital Miejski",50.2921740200,18.9448976300,"https://rj.transportgzm.pl/v2/rozklady/przystanek/2463011-06702/"
5550,2401031-04101,"Wojkowice Spokojna",50.3649030000,19.0257910000,"https://rj.transportgzm.pl/v2/rozklady/przystanek/2401031-04101/"
49,2413072-00302,"Świerklaniec Zajezdnia nż",50.4367428800,18.9471468900,"https://rj.transportgzm.pl/v2/rozklady/przystanek/2413072-00302/"
251,2469011-07401,"Bogucice Markiefki",50.2653316200,19.0414786100,"https://rj.transportgzm.pl/v2/rozklady/przystanek/2469011-07401/"
1042,2401011-04502,"Grodziec Kopalnia",50.3535522000,19.0747272700,"https://rj.transportgzm.pl/v2/rozklady/przystanek/2401011-04502/"
6346,2477011-08402,"Tychy Strefowa",50.0975962500,19.0310287200,"https://rj.transportgzm.pl/v2/rozklady/przystanek/2477011-08402/"
2445,2405032-02501,"Przyszowice Skrzyżowanie",50.2493660100,18.7439525100,"https://rj.transportgzm.pl/v2/rozklady/przystanek/2405032-02501/"
5826,2405074-02201,"Toszek",50.4539828200,18.5232514400,"https://rj.transportgzm.pl/v2/rozklady/przystanek/2405074-02201/"
455,2401021-00201,"Czeladź Cmentarz Komunalny",50.3381953100,19.0691712100,"https://rj.transportgzm.pl/v2/rozklady/przystanek/2401021-00201/"
7960,2413082-04002,"Połomia Leśniczówka nż",50.4727436100,18.7243939600,"https://rj.transportgzm.pl/v2/rozklady/przystanek/2413082-04002/"
10156,2469011-10902,"Katowice Mickiewicza Biurowce",50.2636929000,19.0124892900,"https://rj.transportgzm.pl/v2/rozklady/przystanek/2469011-10902/"
7093,2463011-10801,"Maciejkowice Granica",50.3358436700,18.9771163200,"https://rj.transportgzm.pl/v2/rozklady/przystanek/2463011-10801/"
6367,2477011-20001,"Wygorzele Rymarska",50.1312690000,19.0479410000,"https://rj.transportgzm.pl/v2/rozklady/przystanek/2477011-20001/"
11642,2462011-05002t,"Bytom Urząd Miejski",50.3507632700,18.9120995700,"https://rj.transportgzm.pl/v2/rozklady/przystanek/2462011-05002t/"
4878,2475011-12001,"Sosnowiec Aleja Zwycięstwa",50.2797276000,19.1304850300,"https://rj.transportgzm.pl/v2/rozklady/przystanek/2475011-12001/"
11676,2462011-11701t,"Stroszek Targowisko",50.3955144700,18.8790762200,"https://rj.transportgzm.pl/v2/rozklady/przystanek/2462011-11701t/"
3994,2414011-01909,"Bieruń Osiedle",50.0786426500,19.1715550200,"https://rj.transportgzm.pl/v2/rozklady/przystanek/2414011-01909/"
6532,2408021-07401,"Mokre Łączna",50.1851285200,18.8695812000,"https://rj.transportgzm.pl/v2/rozklady/przystanek/2408021-07401/"
3611,2466011-04301,"Gliwice Łużycka",50.2914173000,18.6720869600,"https://rj.transportgzm.pl/v2/rozklady/przystanek/2466011-04301/"
3135,2465011-14902,"Tucznawa Droga do Sikorki",50.3867553200,19.3048024100,"https://rj.transportgzm.pl/v2/rozklady/przystanek/2465011-14902/"
2413,2474011-04401,"Siemianowice Powstańców",50.2986262600,19.0402555200,"https://rj.transportgzm.pl/v2/rozklady/przystanek/2474011-04401/"
2695,2466011-13601,"Sośnica Michała",50.2894489300,18.7373006300,"https://rj.transportgzm.pl/v2/rozklady/przystanek/2466011-13601/"
3558,2462011-01214,"Bytom Dworzec",50.3440702100,18.9131617300,"https://rj.transportgzm.pl/v2/rozklady/przystanek/2462011-01214/"
2161,2475011-07601,"Ostrowy Górnicze Kolonia Leśna Sklep",50.2801458200,19.2707538300,"https://rj.transportgzm.pl/v2/rozklady/przystanek/2475011-07601/"
132,2463011-00801,"Chorzów Batory Dworzec PKP",50.2799127100,18.9428055000,"https://rj.transportgzm.pl/v2/rozklady/przystanek/2463011-00801/"
11623,2462011-01802t,"Bytom Jagiellońska",50.3443208200,18.9180755400,"https://rj.transportgzm.pl/v2/rozklady/przystanek/2462011-01802t/"
5718,2466011-20702,"Stare Łabędy Einsteina",50.3337439900,18.6046862300,"https://rj.transportgzm.pl/v2/rozklady/przystanek/2466011-20702/"
4911,2469011-25002,"Szopienice Osiedlowa",50.2647928400,19.1040658900,"https://rj.transportgzm.pl/v2/rozklady/przystanek/2469011-25002/"
164,2472011-00201,"Bielszowice Fińskie Domki",50.2648820000,18.8096666300,"https://rj.transportgzm.pl/v2/rozklady/przystanek/2472011-00201/"
1619,2463011-08401,"Maciejkowice Spółdzielnia",50.3224606500,18.9750027400,"https://rj.transportgzm.pl/v2/rozklady/przystanek/2463011-08401/"
101,2401011-00201,"Będzin Aleja Kołłątaja",50.3253512700,19.1350877000,"https://rj.transportgzm.pl/v2/rozklady/przystanek/2401011-00201/"
6392,2477011-22801,"Jaroszowice Samochodowa II",50.1107328600,19.0703499100,"https://rj.transportgzm.pl/v2/rozklady/przystanek/2477011-22801/"
8793,2469011-39702,"Ochojec Spółdzielczości",50.2098395600,18.9896046900,"https://rj.transportgzm.pl/v2/rozklady/przystanek/2469011-39702/"
4872,2466011-15401,"Stare Łabędy SSE",50.3245704100,18.6129045200,"https://rj.transportgzm.pl/v2/rozklady/przystanek/2466011-15401/"
5034,2401011-05102,"Grodziec Podgórna nż",50.3481097000,19.0940713600,"https://rj.transportgzm.pl/v2/rozklady/przystanek/2401011-05102/"
11580,2462011-12801t,"Szombierki Szyb Krystyna",50.3407151200,18.9083874000,"https://rj.transportgzm.pl/v2/rozklady/przystanek/2462011-12801t/"
3213,2470011-08903,"Wesoła Mostek",50.1971601900,19.1120758200,"https://rj.transportgzm.pl/v2/rozklady/przystanek/2470011-08903/"
3409,2475011-16701,"Zagórze Mec",50.2970499500,19.1845261800,"https://rj.transportgzm.pl/v2/rozklady/przystanek/2475011-16701/"
7904,GR73301,"granica MIAS - ŚWIE (Brynica)",50.4701201474,18.9884071390,"https://rj.transportgzm.pl/v2/rozklady/przystanek/GR73301/"
6027,2405064-00301,"Sośnicowice Gliwicka",50.2712500000,18.5329200000,"https://rj.transportgzm.pl/v2/rozklady/przystanek/2405064-00301/"
4716,2478011-08702t,"Zabrze Brysza",50.3031465800,18.7902843700,"https://rj.transportgzm.pl/v2/rozklady/przystanek/2478011-08702t/"
3095,2465011-20202,"Łosień Poboczna",50.3512540000,19.3369140000,"https://rj.transportgzm.pl/v2/rozklady/przystanek/2465011-20202/"
1214,2469011-06302,"Janów Zamkowa",50.2423609000,19.0889811500,"https://rj.transportgzm.pl/v2/rozklady/przystanek/2469011-06302/"
3503,2478011-09402t,"Zabrze Św. Floriana",50.3018722700,18.7932156600,"https://rj.transportgzm.pl/v2/rozklady/przystanek/2478011-09402t/"
6277,2477011-11402,"Tychy Filaretów",50.1160690700,19.0021574200,"https://rj.transportgzm.pl/v2/rozklady/przystanek/2477011-11402/"
6905,2475011-04701,"Milowice Park Logistyczny",50.2875155500,19.1021394500,"https://rj.transportgzm.pl/v2/rozklady/przystanek/2475011-04701/"
6255,2477011-13501,"Tychy Hala Sportowa",50.1071204800,18.9873087100,"https://rj.transportgzm.pl/v2/rozklady/przystanek/2477011-13501/"
5229,2465011-19902,"Antoniów Spacerowa",50.3723055000,19.2298507600,"https://rj.transportgzm.pl/v2/rozklady/przystanek/2465011-19902/"
2411,2474011-04501,"Siemianowice Powstańców Pętla",50.2969032900,19.0428519000,"https://rj.transportgzm.pl/v2/rozklady/przystanek/2474011-04501/"
6513,2408011-03001,"Łaziska Górne Cieszyńska",50.1381663900,18.8333114300,"https://rj.transportgzm.pl/v2/rozklady/przystanek/2408011-03001/"
11153,2475011-16402,"Zagórze Kosynierów nż",50.2976465100,19.2002820900,"https://rj.transportgzm.pl/v2/rozklady/przystanek/2475011-16402/"
3808,2478011-06801,"Rokitnica Boczna nż",50.3583439100,18.7963476400,"https://rj.transportgzm.pl/v2/rozklady/przystanek/2478011-06801/"
8575,2475011-03104,"Kazimierz Górniczy Poczta",50.2949979300,19.2437064400,"https://rj.transportgzm.pl/v2/rozklady/przystanek/2475011-03104/"
2358,2475011-08701,"Pogoń Kościół",50.2901227000,19.1328096700,"https://rj.transportgzm.pl/v2/rozklady/przystanek/2475011-08701/"
5370,2469011-32402,"Wełnowiec GPP BUSINESS PARK",50.2829265800,19.0278529900,"https://rj.transportgzm.pl/v2/rozklady/przystanek/2469011-32402/"
7957,2413092-00602,"Miedary Kopanina",50.4599694800,18.7615740000,"https://rj.transportgzm.pl/v2/rozklady/przystanek/2413092-00602/"
404,2413062-04502,"Celiny Autostrada",50.4491151100,19.0504801000,"https://rj.transportgzm.pl/v2/rozklady/przystanek/2413062-04502/"
3297,2472011-10701,"Wirek Odrodzenia",50.2713637400,18.8724479800,"https://rj.transportgzm.pl/v2/rozklady/przystanek/2472011-10701/"
10739,2408031-00902,"Orzesze Las",50.1340519600,18.7891578400,"https://rj.transportgzm.pl/v2/rozklady/przystanek/2408031-00902/"
3986,2469011-04701,"Giszowiec Kolista Pętla",50.2286904700,19.0600287700,"https://rj.transportgzm.pl/v2/rozklady/przystanek/2469011-04701/"
3127,2462011-02501,"Bytom Łużycka",50.3510264300,18.8941776700,"https://rj.transportgzm.pl/v2/rozklady/przystanek/2462011-02501/"
8412,2401062-06202,"Strzyżowice Stadion nż",50.3915880000,19.0743680000,"https://rj.transportgzm.pl/v2/rozklady/przystanek/2401062-06202/"
466,2466011-01601,"Czechowice Skrzyżowanie",50.3638207600,18.6393747400,"https://rj.transportgzm.pl/v2/rozklady/przystanek/2466011-01601/"
2649,2401042-03602,"Siemonia Kościuszki nż",50.4235304900,19.0464198500,"https://rj.transportgzm.pl/v2/rozklady/przystanek/2401042-03602/"
9099,2413082-02702,"Tworóg nż",50.5402785300,18.7086451400,"https://rj.transportgzm.pl/v2/rozklady/przystanek/2413082-02702/"
1575,2465011-08601,"Marianki Letnia nż",50.3538400000,19.1904330200,"https://rj.transportgzm.pl/v2/rozklady/przystanek/2465011-08601/"
5358,2465011-19801,"Kolonia Piekło Kostury",50.3687820000,19.2214670000,"https://rj.transportgzm.pl/v2/rozklady/przystanek/2465011-19801/"
458,2470011-07002,"Mysłowice Cmentarz",50.2376121900,19.1317510300,"https://rj.transportgzm.pl/v2/rozklady/przystanek/2470011-07002/"
5257,2401021-01902,"Czeladź Stare Miasto",50.3192529300,19.0704644000,"https://rj.transportgzm.pl/v2/rozklady/przystanek/2401021-01902/"
1085,2462011-06301,"Górniki Pętla",50.3923712300,18.7969636900,"https://rj.transportgzm.pl/v2/rozklady/przystanek/2462011-06301/"
7973,2463011-11101,"Chorzów Racławicka OPS",50.2804680600,18.9478480600,"https://rj.transportgzm.pl/v2/rozklady/przystanek/2463011-11101/"
2188,2469011-11002,"Kokociniec Kijowska",50.2364596100,18.9649343400,"https://rj.transportgzm.pl/v2/rozklady/przystanek/2469011-11002/"
4075,2465011-23602,"Gołonóg 11 Listopada",50.3294232100,19.2239500200,"https://rj.transportgzm.pl/v2/rozklady/przystanek/2465011-23602/"
5793,2413082-03301,"Świniowice Osiedle",50.5165689800,18.6513295100,"https://rj.transportgzm.pl/v2/rozklady/przystanek/2413082-03301/"
7101,2469011-38901,"Podlesie Tarninowa nż",50.1886251000,18.9613878500,"https://rj.transportgzm.pl/v2/rozklady/przystanek/2469011-38901/"
290,2469011-24002,"Brynów Orkana",50.2314772600,18.9884948700,"https://rj.transportgzm.pl/v2/rozklady/przystanek/2469011-24002/"
573,2475011-00502,"Dańdówka Dworzec PKP",50.2660540000,19.1746190000,"https://rj.transportgzm.pl/v2/rozklady/przystanek/2475011-00502/"
8515,2466011-23829,"Gliwice Centrum Przesiadkowe [tech]",50.3040264600,18.6753141600,"https://rj.transportgzm.pl/v2/rozklady/przystanek/2466011-23829/"
3431,2463011-06602,"Chorzów Stary Zakłady Azotowe",50.3171885900,18.9810323500,"https://rj.transportgzm.pl/v2/rozklady/przystanek/2463011-06602/"
4724,2478011-12602t,"Guido Kopalnia Zabytkowa",50.2908881100,18.7918615100,"https://rj.transportgzm.pl/v2/rozklady/przystanek/2478011-12602t/"
6776,2410032-00204,"Wola Dom Kultury",50.0162742800,19.1168272200,"https://rj.transportgzm.pl/v2/rozklady/przystanek/2410032-00204/"
3545,2475011-12302,"Sosnowiec Dworzec PKP",50.2779902300,19.1269874300,"https://rj.transportgzm.pl/v2/rozklady/przystanek/2475011-12302/"
5344,2401062-05702,"Góra Siewierska Droga do Twardowic nż",50.4062610700,19.0861058200,"https://rj.transportgzm.pl/v2/rozklady/przystanek/2401062-05702/"
8384,2478011-18001,"Grzybowice Handlowa Zachód",50.3543120500,18.7564670800,"https://rj.transportgzm.pl/v2/rozklady/przystanek/2478011-18001/"
3797,2413021-00402,"Miasteczko Śląskie Droga do Huty nż",50.4954770900,18.9271735900,"https://rj.transportgzm.pl/v2/rozklady/przystanek/2413021-00402/"
2653,2401042-03902,"Siemonia Piekarnia nż",50.4269472800,19.0557405400,"https://rj.transportgzm.pl/v2/rozklady/przystanek/2401042-03902/"
4366,2465011-01302t,"Dąbrowa Górnicza Huta Bankowa",50.3250764200,19.1744348900,"https://rj.transportgzm.pl/v2/rozklady/przystanek/2465011-01302t/"
648,2475011-10902,"Sielec Droga do Środuli nż",50.2879149200,19.1574503800,"https://rj.transportgzm.pl/v2/rozklady/przystanek/2475011-10902/"
2006,2413041-04201,"Tarnowskie Góry Osiedle Fazos",50.4527626300,18.8394662200,"https://rj.transportgzm.pl/v2/rozklady/przystanek/2413041-04201/"
11675,2462011-11702t,"Stroszek Targowisko",50.3953738600,18.8790607400,"https://rj.transportgzm.pl/v2/rozklady/przystanek/2462011-11702t/"
3793,2413041-02301,"Pniowiec Dom Nauczyciela",50.4914221600,18.8111734100,"https://rj.transportgzm.pl/v2/rozklady/przystanek/2413041-02301/"
8463,2478011-20601,"Grzybowice Handlowa Wschód",50.3525322100,18.7670886300,"https://rj.transportgzm.pl/v2/rozklady/przystanek/2478011-20601/"
3636,2401021-02001,"Czeladź Urząd Miasta",50.3163048400,19.0704679200,"https://rj.transportgzm.pl/v2/rozklady/przystanek/2401021-02001/"
4361,2465011-02501t,"Gołonóg Centrum",50.3339535600,19.2240941300,"https://rj.transportgzm.pl/v2/rozklady/przystanek/2465011-02501t/"
10556,2469011-21302,"Osiedle Witosa Droga Kochłowicka",50.2565527100,18.9717482100,"https://rj.transportgzm.pl/v2/rozklady/przystanek/2469011-21302/"
3226,2469011-06902,"Józefowiec Ściegiennego",50.2777189900,19.0084505000,"https://rj.transportgzm.pl/v2/rozklady/przystanek/2469011-06902/"
3204,2466011-07201,"Gliwice Warszawska",50.3055411700,18.6780023500,"https://rj.transportgzm.pl/v2/rozklady/przystanek/2466011-07201/"
5384,2475011-09603,"Porąbka Łukasiewicza",50.2799469900,19.2227422900,"https://rj.transportgzm.pl/v2/rozklady/przystanek/2475011-09603/"
7157,2413041-01402,"Sowice Czarna Huta",50.4601983000,18.8667058700,"https://rj.transportgzm.pl/v2/rozklady/przystanek/2413041-01402/"
11689,2472011-01601t,"Bykowina Mijanka",50.2737829400,18.8907599200,"https://rj.transportgzm.pl/v2/rozklady/przystanek/2472011-01601t/"
5253,2469011-01301,"Katowice Mikołowska Sąd",50.2567196400,19.0130042800,"https://rj.transportgzm.pl/v2/rozklady/przystanek/2469011-01301/"
2590,2475011-10501,"Rudna Gospodarcza II",50.2948156000,19.1211294900,"https://rj.transportgzm.pl/v2/rozklady/przystanek/2475011-10501/"
1453,2401011-05701t,"Koszelew",50.3221989800,19.1566633900,"https://rj.transportgzm.pl/v2/rozklady/przystanek/2401011-05701t/"
4344,2475011-11502t,"Sielec Szkolna",50.2815602600,19.1479864600,"https://rj.transportgzm.pl/v2/rozklady/przystanek/2475011-11502t/"
759,2472011-02701,"Godula Osiedle",50.3152363800,18.8775694300,"https://rj.transportgzm.pl/v2/rozklady/przystanek/2472011-02701/"
1309,2475011-03401,"Klimontów Basen",50.2755740000,19.1963180000,"https://rj.transportgzm.pl/v2/rozklady/przystanek/2475011-03401/"
6401,2477011-17902,"Wartogłowiec Beskidzka",50.1259541800,19.0232932300,"https://rj.transportgzm.pl/v2/rozklady/przystanek/2477011-17902/"
2184,2469011-21902,"Panewniki Bałtycka",50.2277710400,18.9282846400,"https://rj.transportgzm.pl/v2/rozklady/przystanek/2469011-21902/"
375,2472011-01401,"Bykowina Gwarecka",50.2680021300,18.8948905200,"https://rj.transportgzm.pl/v2/rozklady/przystanek/2472011-01401/"
4494,2469011-25902,"Wełnowiec Plac Alfreda",50.2927217100,19.0157355000,"https://rj.transportgzm.pl/v2/rozklady/przystanek/2469011-25902/"
571,2475011-00501,"Dańdówka Dworzec PKP",50.2660090000,19.1749240000,"https://rj.transportgzm.pl/v2/rozklady/przystanek/2475011-00501/"
6598,2408011-02502,"Brada Przysiółki",50.1539776900,18.8209259300,"https://rj.transportgzm.pl/v2/rozklady/przystanek/2408011-02502/"
11690,2472011-01602t,"Bykowina Mijanka",50.2737829400,18.8908028300,"https://rj.transportgzm.pl/v2/rozklady/przystanek/2472011-01602t/"
8105,2477011-15502,"Tychy Trzy Stawy",50.1231615100,18.9964711400,"https://rj.transportgzm.pl/v2/rozklady/przystanek/2477011-15502/"
279,2413092-03103,"Boniowice Skrzyżowanie",50.3941356000,18.7127685300,"https://rj.transportgzm.pl/v2/rozklady/przystanek/2413092-03103/"
11503,2462011-12001t,"Stroszek Zajezdnia",50.3979417300,18.8716196800,"https://rj.transportgzm.pl/v2/rozklady/przystanek/2462011-12001t/"
6458,2408021-00501,"Mikołów Fabryczna",50.1726307700,18.8873588800,"https://rj.transportgzm.pl/v2/rozklady/przystanek/2408021-00501/"
852,GR01902,"granica BĘDZ - PSAR (Niepiekło)",50.3559339024,19.1844825506,"https://rj.transportgzm.pl/v2/rozklady/przystanek/GR01902/"
1372,2472011-06202,"Kochłowice Park Pamięci",50.2486950800,18.8934659000,"https://rj.transportgzm.pl/v2/rozklady/przystanek/2472011-06202/"
1811,2401042-01601,"Myszkowice",50.4355388000,19.0607643100,"https://rj.transportgzm.pl/v2/rozklady/przystanek/2401042-01601/"
1101,2474011-03101,"Siemianowice Głowackiego nż",50.3001065800,19.0309536200,"https://rj.transportgzm.pl/v2/rozklady/przystanek/2474011-03101/"
10009,2401011-07301,"Łagisza Os. Awaryjne",50.3575090400,19.1409945400,"https://rj.transportgzm.pl/v2/rozklady/przystanek/2401011-07301/"
7948,2413092-01902,"Łubie Górne",50.4459860700,18.6537564100,"https://rj.transportgzm.pl/v2/rozklady/przystanek/2413092-01902/"
10769,2408031-01501,"Gardawice Piekarnia",50.1117140200,18.7923013900,"https://rj.transportgzm.pl/v2/rozklady/przystanek/2408031-01501/"
11030,2410022-00102,"Kobiór Centralna",50.0661880000,18.9169260000,"https://rj.transportgzm.pl/v2/rozklady/przystanek/2410022-00102/"
5682,2471011-03005,"Osiedle Wieczorka Dworzec",50.3917279800,18.9603471500,"https://rj.transportgzm.pl/v2/rozklady/przystanek/2471011-03005/"
3109,2465011-08202,"Łosień Szkoła",50.3499924000,19.3305027200,"https://rj.transportgzm.pl/v2/rozklady/przystanek/2465011-08202/"
2096,2465011-07402,"Łęknice Pogoria III",50.3478430000,19.2107960000,"https://rj.transportgzm.pl/v2/rozklady/przystanek/2465011-07402/"
6506,2408011-00601,"Łaziska Górne Basen",50.1575280000,18.8508270000,"https://rj.transportgzm.pl/v2/rozklady/przystanek/2408011-00601/"
4295,2476011-00102,"Chropaczów Konstantego Wolnego",50.3163733400,18.9162838200,"https://rj.transportgzm.pl/v2/rozklady/przystanek/2476011-00102/"
6502,2408011-00702,"Łaziska Górne Ogrodowa",50.1535171200,18.8451409100,"https://rj.transportgzm.pl/v2/rozklady/przystanek/2408011-00702/"
4603,2462011-00601,"Bytom Arki Bożka",50.3339357500,18.9391791600,"https://rj.transportgzm.pl/v2/rozklady/przystanek/2462011-00601/"
3679,2466011-07602t,"Gliwice Zajezdnia",50.3050379100,18.7308573500,"https://rj.transportgzm.pl/v2/rozklady/przystanek/2466011-07602t/"
7108,GR07201,"granica SIEM - KATO (Bytków)",50.2953675899,19.0048989513,"https://rj.transportgzm.pl/v2/rozklady/przystanek/GR07201/"
10982,2466011-30102,"Gliwice Sąd Okręgowy",50.2922400000,18.6565200000,"https://rj.transportgzm.pl/v2/rozklady/przystanek/2466011-30102/"
3029,2462011-07302,"Łagiewniki Boisko",50.3289364800,18.9324152400,"https://rj.transportgzm.pl/v2/rozklady/przystanek/2462011-07302/"
6128,2477011-19502,"Wilkowyje Działki",50.1401282100,18.9566135100,"https://rj.transportgzm.pl/v2/rozklady/przystanek/2477011-19502/"
6657,GR25801,"granica WYRY - KOBI (Centralna)",50.0911931747,18.8895939429,"https://rj.transportgzm.pl/v2/rozklady/przystanek/GR25801/"
4982,GR09001,"granica DĄBR - SOSN (K-D)",50.3161301888,19.1946636703,"https://rj.transportgzm.pl/v2/rozklady/przystanek/GR09001/"
5289,2472011-12201,"Kochłowice Rondo Gębały",50.2584484800,18.9349365200,"https://rj.transportgzm.pl/v2/rozklady/przystanek/2472011-12201/"
3140,2465011-15201,"Tucznawa Smardz",50.3826478600,19.2961304800,"https://rj.transportgzm.pl/v2/rozklady/przystanek/2465011-15201/"
892,GR09401,"granica DĄBR - SŁAW (Strzemieszycka)",50.3060721934,19.3448249999,"https://rj.transportgzm.pl/v2/rozklady/przystanek/GR09401/"
3673,2466011-04802,"Gliwice Opolska",50.3016348300,18.6848521000,"https://rj.transportgzm.pl/v2/rozklady/przystanek/2466011-04802/"
5636,2469011-37102,"Wesoła Kopalnia",50.1816866400,19.0952729900,"https://rj.transportgzm.pl/v2/rozklady/przystanek/2469011-37102/"
814,2465011-04401,"Gołonóg Wczasowa",50.3439780000,19.2242530000,"https://rj.transportgzm.pl/v2/rozklady/przystanek/2465011-04401/"
317,2401062-00202,"Brzękowice Remiza",50.4140100000,19.1107100000,"https://rj.transportgzm.pl/v2/rozklady/przystanek/2401062-00202/"
6268,2477011-05702,"Tychy Sikorskiego Kościół",50.1007758000,18.9867830000,"https://rj.transportgzm.pl/v2/rozklady/przystanek/2477011-05702/"
29,2466011-06501,"Gliwice Świętojańska",50.3101500600,18.6698672100,"https://rj.transportgzm.pl/v2/rozklady/przystanek/2466011-06501/"
8594,2413041-08502,"Tarnowskie Góry Opolska",50.4471551800,18.8484851500,"https://rj.transportgzm.pl/v2/rozklady/przystanek/2413041-08502/"
4959,2465011-10101,"Podwarpie Pętla",50.4259740000,19.2278070000,"https://rj.transportgzm.pl/v2/rozklady/przystanek/2465011-10101/"
2570,2472011-08501,"Ruda Bujoczka",50.3141265000,18.8452005300,"https://rj.transportgzm.pl/v2/rozklady/przystanek/2472011-08501/"
5353,2413062-02701,"Zendek II",50.4923674900,19.0639984300,"https://rj.transportgzm.pl/v2/rozklady/przystanek/2413062-02701/"
1125,2472011-03301,"Halemba Halembska nż",50.2503745000,18.8372719200,"https://rj.transportgzm.pl/v2/rozklady/przystanek/2472011-03301/"
745,2469011-05401,"Giszowiec Radosna",50.2234327400,19.0669595900,"https://rj.transportgzm.pl/v2/rozklady/przystanek/2469011-05401/"
1535,2401075-03301,"Kuźnica Warężyńska Skrzyżowanie",50.4020476400,19.1922488800,"https://rj.transportgzm.pl/v2/rozklady/przystanek/2401075-03301/"
1753,2475011-05002,"Milowice Most",50.2915297000,19.0731823200,"https://rj.transportgzm.pl/v2/rozklady/przystanek/2475011-05002/"
951,GR02902,"granica BOBR - PSAR (Twardowice)",50.4080393719,19.0854080480,"https://rj.transportgzm.pl/v2/rozklady/przystanek/GR02902/"
5746,2413052-00701,"Potępa",50.5661383300,18.6620747800,"https://rj.transportgzm.pl/v2/rozklady/przystanek/2413052-00701/"
1393,2469011-11902,"Kolonia Zuzanna nż",50.2353410300,19.0546703300,"https://rj.transportgzm.pl/v2/rozklady/przystanek/2469011-11902/"
4282,2472011-02305t,"Chebzie Pętla",50.3009647600,18.8832340800,"https://rj.transportgzm.pl/v2/rozklady/przystanek/2472011-02305t/"
1593,2469011-14703,"Ligota Poleska",50.2231691500,18.9691769800,"https://rj.transportgzm.pl/v2/rozklady/przystanek/2469011-14703/"
2472,2401062-04002,"Psary Skrzyżowanie",50.3802160000,19.0916420000,"https://rj.transportgzm.pl/v2/rozklady/przystanek/2401062-04002/"
7075,2478011-15801,"Mikulczyce KSSE Goduli",50.3516901800,18.8001978100,"https://rj.transportgzm.pl/v2/rozklady/przystanek/2478011-15801/"
3251,2469011-06802,"Józefowiec Szpital",50.2848591900,19.0130640200,"https://rj.transportgzm.pl/v2/rozklady/przystanek/2469011-06802/"
11680,2462011-12402t,"Szombierki Elektrociepłownia",50.3379147600,18.8845324500,"https://rj.transportgzm.pl/v2/rozklady/przystanek/2462011-12402t/"
4023,2401052-04001,"Przeczyce Posesja 105",50.4378004100,19.1510844000,"https://rj.transportgzm.pl/v2/rozklady/przystanek/2401052-04001/"
3449,2414031-04302,"Zamoście Skrzyżowanie",50.1386287600,19.0843838400,"https://rj.transportgzm.pl/v2/rozklady/przystanek/2414031-04302/"
4089,2413031-01402,"Rojca Szarlejka nż",50.3731813800,18.9134359300,"https://rj.transportgzm.pl/v2/rozklady/przystanek/2413031-01402/"
2882,2413041-03702,"Strzybnica Ogrodnictwo nż",50.4642176500,18.8180720500,"https://rj.transportgzm.pl/v2/rozklady/przystanek/2413041-03702/"
2056,2475011-07301,"Osiedle Naftowa Pętla",50.2659998900,19.1286295600,"https://rj.transportgzm.pl/v2/rozklady/przystanek/2475011-07301/"
11679,2462011-12401t,"Szombierki Elektrociepłownia",50.3380343100,18.8843226200,"https://rj.transportgzm.pl/v2/rozklady/przystanek/2462011-12401t/"
8653,2462011-15301,"Bytom Wesoła",50.3559795700,18.9322912400,"https://rj.transportgzm.pl/v2/rozklady/przystanek/2462011-15301/"
6773,GR25101,"granica BOJS - MIED (Międzyrzecka)",50.0237040637,19.0875237878,"https://rj.transportgzm.pl/v2/rozklady/przystanek/GR25101/"
1886,2475011-06001,"Niwka Kolonia Staszic",50.2541129700,19.1506981600,"https://rj.transportgzm.pl/v2/rozklady/przystanek/2475011-06001/"
11715,2462011-13801t,"Dąbrowa Miejska Węglowa nż",50.3666499900,18.8951587400,"https://rj.transportgzm.pl/v2/rozklady/przystanek/2462011-13801t/"
7339,GR04001,"granica BOBR - PIEK (Namiarki)",50.3743061457,18.9630070226,"https://rj.transportgzm.pl/v2/rozklady/przystanek/GR04001/"
2836,2465011-12201,"Strzemieszyce Fabryka",50.3086657800,19.3002963000,"https://rj.transportgzm.pl/v2/rozklady/przystanek/2465011-12201/"
6415,2477011-16302,"Urbanowice Główna",50.1094641000,19.0357601400,"https://rj.transportgzm.pl/v2/rozklady/przystanek/2477011-16302/"
2292,2466011-05301,"Gliwice Plac Piłsudskiego",50.2967963600,18.6679756400,"https://rj.transportgzm.pl/v2/rozklady/przystanek/2466011-05301/"
2614,2462011-04301,"Bytom Sandomierska",50.3563659200,18.9302158300,"https://rj.transportgzm.pl/v2/rozklady/przystanek/2462011-04301/"
3932,2405011-02202,"Szczygłowice Kościół",50.1954331000,18.6497547000,"https://rj.transportgzm.pl/v2/rozklady/przystanek/2405011-02202/"
3704,2405011-00501,"Knurów Poczta",50.2213256500,18.6730241700,"https://rj.transportgzm.pl/v2/rozklady/przystanek/2405011-00501/"
3069,2401011-07501,"Łagisza Poczta",50.3513747000,19.1380146200,"https://rj.transportgzm.pl/v2/rozklady/przystanek/2401011-07501/"
1541,2465011-06501,"Kuźniczka Las nż",50.3262173300,19.4048702700,"https://rj.transportgzm.pl/v2/rozklady/przystanek/2465011-06501/"
7937,2413092-02001,"Łubie nż",50.4366728900,18.6517501200,"https://rj.transportgzm.pl/v2/rozklady/przystanek/2413092-02001/"
1638,2472011-08902,"Ruda Magazynowa",50.3071720200,18.8633859100,"https://rj.transportgzm.pl/v2/rozklady/przystanek/2472011-08902/"
4163,2470011-04501,"Krasowy Dąbrówki",50.1844209300,19.1333603600,"https://rj.transportgzm.pl/v2/rozklady/przystanek/2470011-04501/"
6476,2408011-01801,"Łaziska Średnie Kopalniana",50.1470465500,18.8709957300,"https://rj.transportgzm.pl/v2/rozklady/przystanek/2408011-01801/"
2606,2413041-03202,"Rybna Pałac",50.4666318400,18.7917434900,"https://rj.transportgzm.pl/v2/rozklady/przystanek/2413041-03202/"
936,GR12901,"granica KATO - SOSN (Roździeńskiego)",50.2819087005,19.0911694351,"https://rj.transportgzm.pl/v2/rozklady/przystanek/GR12901/"
1895,2474011-04002,"Siemianowice Nowy Świat",50.3091862300,19.0175211200,"https://rj.transportgzm.pl/v2/rozklady/przystanek/2474011-04002/"
60,2466011-18302,"Żerniki Rogozińskiego",50.3250800100,18.7031447600,"https://rj.transportgzm.pl/v2/rozklady/przystanek/2466011-18302/"
730,2405032-01202,"Gierałtowice Wyzwolenia",50.2197021500,18.7126940400,"https://rj.transportgzm.pl/v2/rozklady/przystanek/2405032-01202/"
4732,2478011-12102t,"Zabrze Pole Ludwik",50.3252553700,18.7887757900,"https://rj.transportgzm.pl/v2/rozklady/przystanek/2478011-12102t/"
923,GR13302,"granica KATO - MYSŁ (Janów)",50.2441393992,19.0995691749,"https://rj.transportgzm.pl/v2/rozklady/przystanek/GR13302/"
4660,2462011-13101,"Szombierki Osiedle",50.3325763700,18.8902403100,"https://rj.transportgzm.pl/v2/rozklady/przystanek/2462011-13101/"
913,GR07102,"granica CHOR - KATO (Kochłowicka)",50.2557251450,18.9569674706,"https://rj.transportgzm.pl/v2/rozklady/przystanek/GR07102/"
2989,2462011-07902,"Łagiewniki Różana nż",50.3194355900,18.9325487400,"https://rj.transportgzm.pl/v2/rozklady/przystanek/2462011-07902/"
2724,2413041-04801,"Stare Tarnowice Osiedle Przyjaźń",50.4435510300,18.8245522700,"https://rj.transportgzm.pl/v2/rozklady/przystanek/2413041-04801/"
3816,2462011-12601,"Szombierki Godulska",50.3352029600,18.8877511000,"https://rj.transportgzm.pl/v2/rozklady/przystanek/2462011-12601/"
8654,2478011-17702,"Grzybowice Szczecińska",50.3615546700,18.7643910600,"https://rj.transportgzm.pl/v2/rozklady/przystanek/2478011-17702/"
4844,2470011-01901,"Słupna Ośrodek Wypoczynkowy",50.2288895100,19.1420936300,"https://rj.transportgzm.pl/v2/rozklady/przystanek/2470011-01901/"
5089,2477011-00802,"Czułów Osiedle",50.1556618600,19.0082084900,"https://rj.transportgzm.pl/v2/rozklady/przystanek/2477011-00802/"
3650,2465011-10701,"Reden Wojska Polskiego",50.3233470200,19.2012846200,"https://rj.transportgzm.pl/v2/rozklady/przystanek/2465011-10701/"
4725,2478011-11501t,"Guido Park Pileckiego",50.2872728900,18.7932884400,"https://rj.transportgzm.pl/v2/rozklady/przystanek/2478011-11501t/"
5631,2462011-01501,"Łagiewniki Gojny nż",50.3359765100,18.9230859000,"https://rj.transportgzm.pl/v2/rozklady/przystanek/2462011-01501/"
3709,2413092-03001,"Boniowice Szkoła",50.3978243400,18.7119496200,"https://rj.transportgzm.pl/v2/rozklady/przystanek/2413092-03001/"
2444,2405032-02303,"Przyszowice Kościół",50.2453455700,18.7426865100,"https://rj.transportgzm.pl/v2/rozklady/przystanek/2405032-02303/"
3439,2401074-06102,"Siewierz Zamek",50.4652321100,19.2398875900,"https://rj.transportgzm.pl/v2/rozklady/przystanek/2401074-06102/"
6158,2477011-03201,"Mąkołowiec Zielone Wzgórze",50.1407566800,18.9800989400,"https://rj.transportgzm.pl/v2/rozklady/przystanek/2477011-03201/"
2410,2413041-07002,"Tarnowskie Góry Powstańców Śląskich",50.4475905700,18.8564943300,"https://rj.transportgzm.pl/v2/rozklady/przystanek/2413041-07002/"
177,2472011-01002,"Bielszowice Szpital",50.2759088600,18.8550388800,"https://rj.transportgzm.pl/v2/rozklady/przystanek/2472011-01002/"
10672,2466011-23131,"Łabędy Narutowicza",50.3432287800,18.6312783900,"https://rj.transportgzm.pl/v2/rozklady/przystanek/2466011-23131/"
11071,2463011-02001,"Chorzów Boczna",50.2973008000,18.9362180000,"https://rj.transportgzm.pl/v2/rozklady/przystanek/2463011-02001/"
5484,2469011-32702,"Piotrowice Wojska Polskiego",50.2049959000,18.9716553400,"https://rj.transportgzm.pl/v2/rozklady/przystanek/2469011-32702/"
651,2401021-02402,"Piaski Centrum Handlowe",50.3218795500,19.1006587700,"https://rj.transportgzm.pl/v2/rozklady/przystanek/2401021-02402/"
810,2465011-03801,"Gołonóg Osiedle",50.3375378400,19.2241692300,"https://rj.transportgzm.pl/v2/rozklady/przystanek/2465011-03801/"
3344,2465011-16902,"Ząbkowice Aleja Zwycięstwa",50.3808313300,19.2530037100,"https://rj.transportgzm.pl/v2/rozklady/przystanek/2465011-16902/"
10006,2401011-08902,"Os. Zamkowe Krośnieńska",50.3327886800,19.1176916300,"https://rj.transportgzm.pl/v2/rozklady/przystanek/2401011-08902/"
2554,2475011-13401t,"Sosnowiec Rondo Ludwik",50.2733303700,19.1454732200,"https://rj.transportgzm.pl/v2/rozklady/przystanek/2475011-13401t/"
3321,2466011-12002,"Wójtowa Wieś Wójtowska",50.2864675900,18.6247610200,"https://rj.transportgzm.pl/v2/rozklady/przystanek/2466011-12002/"
2629,2475011-11101,"Sielec Kombajnistów",50.2794122100,19.1505694100,"https://rj.transportgzm.pl/v2/rozklady/przystanek/2475011-11101/"
2004,2475011-06902,"Osiedle Bór Długa III",50.2480281900,19.1905456700,"https://rj.transportgzm.pl/v2/rozklady/przystanek/2475011-06902/"
3897,2413062-03102,"Zendek VI",50.4925613400,19.1029011900,"https://rj.transportgzm.pl/v2/rozklady/przystanek/2413062-03102/"
5935,2405021-03402,"Pyskowice Schenker",50.4147500900,18.6157271800,"https://rj.transportgzm.pl/v2/rozklady/przystanek/2405021-03402/"
10767,2408031-01602,"Gardawice Kilińskiego",50.1117855600,18.7827849100,"https://rj.transportgzm.pl/v2/rozklady/przystanek/2408031-01602/"
2434,2466011-12301,"Przyszówka Osiedle Literatów",50.3342750300,18.6419534600,"https://rj.transportgzm.pl/v2/rozklady/przystanek/2466011-12301/"
10021,2401011-00702,"Będzin Dworzec",50.3184651200,19.1333783000,"https://rj.transportgzm.pl/v2/rozklady/przystanek/2401011-00702/"
3754,2412014-01101,"Leszczyny Broniewskiego",50.1399662100,18.6217939800,"https://rj.transportgzm.pl/v2/rozklady/przystanek/2412014-01101/"
6180,2477011-07502,"Tychy Kościuszki",50.1286220000,18.9865660000,"https://rj.transportgzm.pl/v2/rozklady/przystanek/2477011-07502/"
1817,2472011-07202,"Nowy Bytom Chorzowska",50.2797123300,18.8981025600,"https://rj.transportgzm.pl/v2/rozklady/przystanek/2472011-07202/"
5934,2405021-03401,"Pyskowice Schenker",50.4131672900,18.6156768600,"https://rj.transportgzm.pl/v2/rozklady/przystanek/2405021-03401/"
751,2465011-14701,"Trzebiesławice Zachodnia",50.4314780000,19.2447960000,"https://rj.transportgzm.pl/v2/rozklady/przystanek/2465011-14701/"
8056,2470011-12602,"Wesoła Kryształowa",50.1922931500,19.1017317500,"https://rj.transportgzm.pl/v2/rozklady/przystanek/2470011-12602/"
2194,2469011-22201,"Panewniki Owsiana",50.2221150700,18.9253878500,"https://rj.transportgzm.pl/v2/rozklady/przystanek/2469011-22201/"
2555,2475011-13402,"Sosnowiec Rondo Ludwik",50.2735429400,19.1454088400,"https://rj.transportgzm.pl/v2/rozklady/przystanek/2475011-13402/"
3714,2413092-07901,"Wilkowice Osiedle nż",50.4411741700,18.7286158600,"https://rj.transportgzm.pl/v2/rozklady/przystanek/2413092-07901/"
6135,2477011-03701,"Mąkołowiec Objazdowa",50.1422322900,18.9699280000,"https://rj.transportgzm.pl/v2/rozklady/przystanek/2477011-03701/"
8182,2466011-23501,"Ligota Zabrska Okrężna SSE nż",50.2663287800,18.7076723300,"https://rj.transportgzm.pl/v2/rozklady/przystanek/2466011-23501/"
41,2413072-00802,"Świerklaniec Centrum",50.4403890800,18.9376937400,"https://rj.transportgzm.pl/v2/rozklady/przystanek/2413072-00802/"
1876,2475011-05802,"Niwka Cmentarz Komunalny",50.2556838500,19.1686260400,"https://rj.transportgzm.pl/v2/rozklady/przystanek/2475011-05802/"
11575,2462011-10302t,"Rozbark Siemianowicka",50.3443033000,18.9323294100,"https://rj.transportgzm.pl/v2/rozklady/przystanek/2462011-10302t/"
11039,2408052-01301,"Gostyń Motyla",50.1064599000,18.8603436700,"https://rj.transportgzm.pl/v2/rozklady/przystanek/2408052-01301/"
7980,GR73901,"granica MIER - OŻAR (Ogr. Działkowe II)",50.4636940941,19.0938878656,"https://rj.transportgzm.pl/v2/rozklady/przystanek/GR73901/"
3716,2413092-07601,"Zbrosławice Jagiellońska",50.4228653600,18.7617894200,"https://rj.transportgzm.pl/v2/rozklady/przystanek/2413092-07601/"
4033,2401052-03602,"Sadowie OSP",50.4380522100,19.1217755300,"https://rj.transportgzm.pl/v2/rozklady/przystanek/2401052-03602/"
5615,2471011-00703,"Brzeziny Śląskie Skrzyżowanie",50.3449603000,18.9798629000,"https://rj.transportgzm.pl/v2/rozklady/przystanek/2471011-00703/"
3936,2412014-00402,"Czuchów Szkoła",50.1697329000,18.6538168800,"https://rj.transportgzm.pl/v2/rozklady/przystanek/2412014-00402/"
3505,2470011-02302,"Ćmok Obrzeżna Zachodnia",50.2309625200,19.1178095300,"https://rj.transportgzm.pl/v2/rozklady/przystanek/2470011-02302/"
3238,2469011-11401,"Kolonia Agnieszki Promienna",50.2875227000,19.0073883500,"https://rj.transportgzm.pl/v2/rozklady/przystanek/2469011-11401/"
9997,2401011-08501,"Os. Syberka Pawilony",50.3202138000,19.1181361400,"https://rj.transportgzm.pl/v2/rozklady/przystanek/2401011-08501/"
4293,2476011-00101,"Chropaczów Konstantego Wolnego",50.3166176700,18.9172993700,"https://rj.transportgzm.pl/v2/rozklady/przystanek/2476011-00101/"
884,GR07402,"granica CHOR - RUDA (Radoszowska)",50.2585396202,18.9355347176,"https://rj.transportgzm.pl/v2/rozklady/przystanek/GR07402/"
1708,2462011-09601,"Miechowice Warszawska",50.3548665200,18.8637554400,"https://rj.transportgzm.pl/v2/rozklady/przystanek/2462011-09601/"
6062,2408042-01102,"Ornontowice Urząd Gminy",50.1829067900,18.7622391900,"https://rj.transportgzm.pl/v2/rozklady/przystanek/2408042-01102/"
11703,2463011-03201t,"Chorzów Kościół św. Jadwigi",50.2921671600,18.9465069500,"https://rj.transportgzm.pl/v2/rozklady/przystanek/2463011-03201t/"
3690,2469011-18002,"Obroki Dulęby",50.2670328600,18.9676605300,"https://rj.transportgzm.pl/v2/rozklady/przystanek/2469011-18002/"
1725,2478011-04102,"Mikulczyce 11 Listopada",50.3309999700,18.7760103300,"https://rj.transportgzm.pl/v2/rozklady/przystanek/2478011-04102/"
2526,2401042-02701,"Rogoźnik Narutowicza",50.3846138400,19.0377878900,"https://rj.transportgzm.pl/v2/rozklady/przystanek/2401042-02701/"
2062,2475011-13001,"Sosnowiec Osiedle Piastów",50.2797070300,19.1121816400,"https://rj.transportgzm.pl/v2/rozklady/przystanek/2475011-13001/"
93,2469011-20901,"Osiedle Tysiąclecia Ułańska",50.2855655500,18.9669674600,"https://rj.transportgzm.pl/v2/rozklady/przystanek/2469011-20901/"
4656,2476011-00701t,"Lipiny Kościół",50.3073540100,18.9040422200,"https://rj.transportgzm.pl/v2/rozklady/przystanek/2476011-00701t/"
11610,2476011-00801t,"Lipiny Mijanka",50.3078226800,18.8999330700,"https://rj.transportgzm.pl/v2/rozklady/przystanek/2476011-00801t/"
3639,2401021-01302,"Czeladź Kopalnia Saturn",50.3089368300,19.0631937700,"https://rj.transportgzm.pl/v2/rozklady/przystanek/2401021-01302/"
7028,2405052-02502,"Rudziniec Młyńska nż",50.3612479500,18.4062597200,"https://rj.transportgzm.pl/v2/rozklady/przystanek/2405052-02502/"
1132,2472011-04102,"Halemba Orzeszkowej",50.2398437500,18.8734028400,"https://rj.transportgzm.pl/v2/rozklady/przystanek/2472011-04102/"
4856,2470011-08401t,"Mysłowice Urząd Miasta",50.2405710000,19.1414730000,"https://rj.transportgzm.pl/v2/rozklady/przystanek/2470011-08401t/"
11,2408021-05202,"Śmiłowice Biblioteka",50.1998207000,18.8624894400,"https://rj.transportgzm.pl/v2/rozklady/przystanek/2408021-05202/"
3841,2413062-04102,"Pyrzowice Nowowiejska nż",50.4566020900,19.0707254200,"https://rj.transportgzm.pl/v2/rozklady/przystanek/2413062-04102/"
603,2478011-09202,"Zabrze Damrota",50.3058629400,18.7681293200,"https://rj.transportgzm.pl/v2/rozklady/przystanek/2478011-09202/"
4079,2474011-03902,"Siemianowice Mysłowicka nż",50.2887494400,19.0547072600,"https://rj.transportgzm.pl/v2/rozklady/przystanek/2474011-03902/"
5307,2401011-10501,"Grodziec Szkoła",50.3454458500,19.0849900300,"https://rj.transportgzm.pl/v2/rozklady/przystanek/2401011-10501/"
2122,2478011-11402,"Zabrze Osiedle Wyzwolenia",50.2933765400,18.7600886800,"https://rj.transportgzm.pl/v2/rozklady/przystanek/2478011-11402/"
1658,2401075-03602,"Marcinków nż",50.4216028600,19.2044663400,"https://rj.transportgzm.pl/v2/rozklady/przystanek/2401075-03602/"
1040,2401011-04603,"Grodziec Kościół",50.3503347000,19.0909278100,"https://rj.transportgzm.pl/v2/rozklady/przystanek/2401011-04603/"
1070,2401062-02202,"Gródków Górna nż",50.3625227000,19.0998440900,"https://rj.transportgzm.pl/v2/rozklady/przystanek/2401062-02202/"
4916,GR08401,"granica CZER - KNUR (Czuchów)",50.1874612196,18.6507260786,"https://rj.transportgzm.pl/v2/rozklady/przystanek/GR08401/"
9976,2470011-07102t,"Mysłowice Dworzec PKP",50.2384466400,19.1425013300,"https://rj.transportgzm.pl/v2/rozklady/przystanek/2470011-07102t/"
4885,2469011-09601,"Brynów Dziewięciu z Wujka",50.2402475000,18.9897179600,"https://rj.transportgzm.pl/v2/rozklady/przystanek/2469011-09601/"
5417,2463011-00103,"Chorzów Rynek",50.2979477700,18.9547681500,"https://rj.transportgzm.pl/v2/rozklady/przystanek/2463011-00103/"
1194,2465011-01901t,"Dąbrowa Górnicza Sienkiewicza",50.3258643000,19.1829490400,"https://rj.transportgzm.pl/v2/rozklady/przystanek/2465011-01901t/"
8756,2413072-00202,"Świerklaniec Park",50.4343699400,18.9465498700,"https://rj.transportgzm.pl/v2/rozklady/przystanek/2413072-00202/"
4769,2408021-01701,"Mikołów Krakowska",50.1646109800,18.9130544400,"https://rj.transportgzm.pl/v2/rozklady/przystanek/2408021-01701/"
5277,2478011-09301,"Zabrze Urząd Stanu Cywilnego",50.3061000400,18.7737405000,"https://rj.transportgzm.pl/v2/rozklady/przystanek/2478011-09301/"
3557,2462011-01213,"Bytom Dworzec",50.3439675100,18.9133763100,"https://rj.transportgzm.pl/v2/rozklady/przystanek/2462011-01213/"
10742,2408031-02101,"Woszczyce Centrum",50.0829001800,18.7572181000,"https://rj.transportgzm.pl/v2/rozklady/przystanek/2408031-02101/"
1885,2475011-06202t,"Niwka Kościół",50.2388858100,19.1570067100,"https://rj.transportgzm.pl/v2/rozklady/przystanek/2475011-06202t/"
2829,2465011-13601,"Strzemieszyce Srocza Góra",50.3127874700,19.2921793200,"https://rj.transportgzm.pl/v2/rozklady/przystanek/2465011-13601/"
2668,2478011-08502,"Zaborze Skargi",50.2934313700,18.8138294200,"https://rj.transportgzm.pl/v2/rozklady/przystanek/2478011-08502/"
1426,2405032-00601,"Gierałtowice Korfantego",50.2349310000,18.7211510500,"https://rj.transportgzm.pl/v2/rozklady/przystanek/2405032-00601/"
451,2416055-00601,"Chruszczobród Skrzyżowanie",50.4147530000,19.3252730300,"https://rj.transportgzm.pl/v2/rozklady/przystanek/2416055-00601/"
4479,2469011-28402t,"Zawodzie Łączna",50.2595703600,19.0608870700,"https://rj.transportgzm.pl/v2/rozklady/przystanek/2469011-28402t/"
9036,2469011-34702,"Podlesie Pomorskiego",50.1765199200,18.9620852200,"https://rj.transportgzm.pl/v2/rozklady/przystanek/2469011-34702/"
271,2466011-00702,"Bojków Szyb nż",50.2567950900,18.6981236700,"https://rj.transportgzm.pl/v2/rozklady/przystanek/2466011-00702/"
3572,2413041-07101,"Tarnowskie Góry Wyszyńskiego",50.4423785400,18.8466000300,"https://rj.transportgzm.pl/v2/rozklady/przystanek/2413041-07101/"
3865,2413062-01101,"Ożarowice Urząd Gminy",50.4682555100,19.0485741600,"https://rj.transportgzm.pl/v2/rozklady/przystanek/2413062-01101/"
6690,2414011-02203,"Bieruń Plac Autobusowy",50.0890544900,19.0916144600,"https://rj.transportgzm.pl/v2/rozklady/przystanek/2414011-02203/"
3090,2465011-06901,"Łazy Błędowskie Remiza",50.3458305700,19.4160712900,"https://rj.transportgzm.pl/v2/rozklady/przystanek/2465011-06901/"
5332,2470011-02605,"Ćmok Rondo (Partyzantów)",50.2342636000,19.1248047300,"https://rj.transportgzm.pl/v2/rozklady/przystanek/2470011-02605/"
2968,2469011-02304,"Burowiec",50.2690376500,19.0804993800,"https://rj.transportgzm.pl/v2/rozklady/przystanek/2469011-02304/"
976,GR08901,"granica DĄBR - SOSN (Zagórze)",50.3158350027,19.1961963875,"https://rj.transportgzm.pl/v2/rozklady/przystanek/GR08901/"
3896,2413062-03101,"Zendek VI",50.4924128700,19.1030000700,"https://rj.transportgzm.pl/v2/rozklady/przystanek/2413062-03101/"
4554,2469011-09501,"Brynów Dworska",50.2327878000,18.9955591900,"https://rj.transportgzm.pl/v2/rozklady/przystanek/2469011-09501/"
701,2463011-02702t,"Chorzów Wodociągi",50.3027425900,18.9345385600,"https://rj.transportgzm.pl/v2/rozklady/przystanek/2463011-02702t/"
1655,2401062-03101,"Malinowice Wiejska",50.3896997600,19.1365298600,"https://rj.transportgzm.pl/v2/rozklady/przystanek/2401062-03101/"
3322,2466011-15701,"Wójtowa Wieś",50.2878003300,18.6348670700,"https://rj.transportgzm.pl/v2/rozklady/przystanek/2466011-15701/"
4124,2401052-02901,"Toporowice Źródlana",50.4277071900,19.1288496200,"https://rj.transportgzm.pl/v2/rozklady/przystanek/2401052-02901/"
5671,2414052-00202,"Chełm Mały Pętla",50.1031293500,19.2247164000,"https://rj.transportgzm.pl/v2/rozklady/przystanek/2414052-00202/"
502,2401062-01302,"Dąbie Dolna 1",50.4070018100,19.1396681500,"https://rj.transportgzm.pl/v2/rozklady/przystanek/2401062-01302/"
3019,2466011-09301,"Łabędy Strzelców Bytomskich",50.3455494100,18.6232852900,"https://rj.transportgzm.pl/v2/rozklady/przystanek/2466011-09301/"
3362,2465011-17602,"Ząbkowice Osiedle Młodych Hutników",50.3832540000,19.2475430000,"https://rj.transportgzm.pl/v2/rozklady/przystanek/2465011-17602/"
2889,2470011-02002,"Brzęczkowice Słupna",50.2294591700,19.1447651100,"https://rj.transportgzm.pl/v2/rozklady/przystanek/2470011-02002/"
8318,2469011-30301,"Nowy Nikiszowiec",50.2476033500,19.0733079100,"https://rj.transportgzm.pl/v2/rozklady/przystanek/2469011-30301/"
1472,2478011-10702,"Zabrze Kotarbińskiego",50.3170381700,18.7673950100,"https://rj.transportgzm.pl/v2/rozklady/przystanek/2478011-10702/"
3235,2469011-25702t,"Wełnowiec Gnieźnieńska",50.2829464600,19.0193664800,"https://rj.transportgzm.pl/v2/rozklady/przystanek/2469011-25702t/"
4910,2469011-25001,"Szopienice Osiedlowa",50.2647379700,19.1037011100,"https://rj.transportgzm.pl/v2/rozklady/przystanek/2469011-25001/"
11182,2462011-01101,"Bytom Dworska Obwodnica nż",50.3681172300,18.9141487800,"https://rj.transportgzm.pl/v2/rozklady/przystanek/2462011-01101/"
1451,2401011-05802,"Koszelew Kościół",50.3226962800,19.1589808200,"https://rj.transportgzm.pl/v2/rozklady/przystanek/2401011-05802/"
2278,2469011-23501,"Piotrowice Tyska",50.2111372600,18.9848303500,"https://rj.transportgzm.pl/v2/rozklady/przystanek/2469011-23501/"
5366,2475011-19001,"Środula Muzeum nż",50.2985408100,19.1433472300,"https://rj.transportgzm.pl/v2/rozklady/przystanek/2475011-19001/"
1149,2472011-04401,"Halemba Pętla",50.2447277800,18.8244879000,"https://rj.transportgzm.pl/v2/rozklady/przystanek/2472011-04401/"
2044,2465011-09801,"Mydlice Szpital",50.3191519900,19.1782283500,"https://rj.transportgzm.pl/v2/rozklady/przystanek/2465011-09801/"
5202,2401081-02302,"Sławków Urząd Miasta (Siewierska)",50.3011866500,19.3843507500,"https://rj.transportgzm.pl/v2/rozklady/przystanek/2401081-02302/"
918,GR14001,"granica KATO - MIKO (Kamionka)",50.1948611294,18.9294628535,"https://rj.transportgzm.pl/v2/rozklady/przystanek/GR14001/"
3733,2413041-05201,"Stare Tarnowice GCR",50.4309364900,18.8046073700,"https://rj.transportgzm.pl/v2/rozklady/przystanek/2413041-05201/"
4327,2475011-13702t,"Sosnowiec Piłsudskiego/Sobieskiego",50.2768753500,19.1193806900,"https://rj.transportgzm.pl/v2/rozklady/przystanek/2475011-13702t/"
11637,2462011-04502t,"Bytom Smolenia",50.3524055700,18.9198779800,"https://rj.transportgzm.pl/v2/rozklady/przystanek/2462011-04502t/"
2193,2469011-22602,"Panewniki Wymysłów",50.2287906800,18.9327311300,"https://rj.transportgzm.pl/v2/rozklady/przystanek/2469011-22602/"
2116,2471011-03402,"Osiedle Wyzwolenia Akacjowa",50.3790278100,18.9358532200,"https://rj.transportgzm.pl/v2/rozklady/przystanek/2471011-03402/"
6913,GR00102,"granica BĘDZ - DĄBR (Koszelew)",50.3221546350,19.1630188903,"https://rj.transportgzm.pl/v2/rozklady/przystanek/GR00102/"
3093,2414052-01101,"Chełm Śląski Techników",50.1174374500,19.2007435500,"https://rj.transportgzm.pl/v2/rozklady/przystanek/2414052-01101/"
1129,2472011-03501,"Halemba Kościół",50.2445908500,18.8425397800,"https://rj.transportgzm.pl/v2/rozklady/przystanek/2472011-03501/"
1348,2472011-05902,"Kochłowice Krzyż",50.2602589900,18.9016711500,"https://rj.transportgzm.pl/v2/rozklady/przystanek/2472011-05902/"
4014,2401052-00202,"Mierzęcice Widokowa nż",50.4470040500,19.1391075000,"https://rj.transportgzm.pl/v2/rozklady/przystanek/2401052-00202/"
263,2466011-00302,"Bojków Piekarnia",50.2492670000,18.6712570000,"https://rj.transportgzm.pl/v2/rozklady/przystanek/2466011-00302/"
1680,2474011-02001,"Michałkowice Tarnogórska nż",50.3299429900,19.0098929100,"https://rj.transportgzm.pl/v2/rozklady/przystanek/2474011-02001/"
1737,2478011-05002,"Mikulczyce Nowodworska",50.3340909600,18.7701963000,"https://rj.transportgzm.pl/v2/rozklady/przystanek/2478011-05002/"
5705,2466011-20801,"Gliwice Europa Centralna",50.2651670200,18.7194847800,"https://rj.transportgzm.pl/v2/rozklady/przystanek/2466011-20801/"
1741,2478011-05401t,"Mikulczyce Tarnopolska",50.3362709700,18.7832784400,"https://rj.transportgzm.pl/v2/rozklady/przystanek/2478011-05401t/"
4345,2475011-13501t,"Sosnowiec Sąd",50.2734743700,19.1411494900,"https://rj.transportgzm.pl/v2/rozklady/przystanek/2475011-13501t/"
6802,GR24401,"granica TYCH - BIER (Baza Transportowa)",50.0931402835,19.0592886363,"https://rj.transportgzm.pl/v2/rozklady/przystanek/GR24401/"
561,2475011-02002t,"Dębowa Góra Zakopiańska",50.2715543600,19.1566741200,"https://rj.transportgzm.pl/v2/rozklady/przystanek/2475011-02002t/"
5431,2465011-20701,"Błędów LZS Tęcza",50.3442793400,19.4383227800,"https://rj.transportgzm.pl/v2/rozklady/przystanek/2465011-20701/"
1892,2475011-06501,"Niwka Tuwima",50.2425873300,19.1652792600,"https://rj.transportgzm.pl/v2/rozklady/przystanek/2475011-06501/"
2805,2401062-05201,"Strzyżowice Podwale Kościół",50.3852180000,19.0715390000,"https://rj.transportgzm.pl/v2/rozklady/przystanek/2401062-05201/"
7170,2469011-01201A,"Katowice Sądowa",50.2587842900,19.0115237000,"https://rj.transportgzm.pl/v2/rozklady/przystanek/2469011-01201A/"
3340,2405021-00302,"Pyskowice Plac Wyszyńskiego",50.3983896800,18.6294162000,"https://rj.transportgzm.pl/v2/rozklady/przystanek/2405021-00302/"
3239,2469011-11402,"Kolonia Agnieszki Promienna",50.2873444700,19.0075385500,"https://rj.transportgzm.pl/v2/rozklady/przystanek/2469011-11402/"
6214,2477011-22602,"Żwaków Nowa",50.1075677500,18.9612054600,"https://rj.transportgzm.pl/v2/rozklady/przystanek/2477011-22602/"
2338,2475011-11402t,"Sielec Park",50.2837355500,19.1385423900,"https://rj.transportgzm.pl/v2/rozklady/przystanek/2475011-11402t/"
7935,2413092-02101,"Łubie Dolne nż",50.4301190900,18.6495936200,"https://rj.transportgzm.pl/v2/rozklady/przystanek/2413092-02101/"
374,2472011-01301,"Bykowina Grzegorzka",50.2649917300,18.8868391500,"https://rj.transportgzm.pl/v2/rozklady/przystanek/2472011-01301/"
2493,2466011-16102,"Gliwice Michałowskiego",50.3096179000,18.6880600200,"https://rj.transportgzm.pl/v2/rozklady/przystanek/2466011-16102/"
2931,2465011-02002,"Dąbrowa Górnicza Muzeum Sztygarka",50.3183641800,19.1855132300,"https://rj.transportgzm.pl/v2/rozklady/przystanek/2465011-02002/"
10024,2401011-04801,"Grodziec Miłosza",50.3477126200,19.0897691000,"https://rj.transportgzm.pl/v2/rozklady/przystanek/2401011-04801/"
1933,2466011-16901,"Trynek Autostrada nż",50.2661381500,18.6598024400,"https://rj.transportgzm.pl/v2/rozklady/przystanek/2466011-16901/"
187,2478011-00401,"Os. Młodego Górnika Haldex nż",50.3419453600,18.8124122600,"https://rj.transportgzm.pl/v2/rozklady/przystanek/2478011-00401/"
4047,2469011-28501,"Zawodzie Ośrodek Sportowy",50.2592164200,19.0555226500,"https://rj.transportgzm.pl/v2/rozklady/przystanek/2469011-28501/"
6781,2414042-02020,"Jedlina Bojszowska nż",50.0493725400,19.1350105400,"https://rj.transportgzm.pl/v2/rozklady/przystanek/2414042-02020/"
4942,2401074-06401,"Sulików Słoneczna nż",50.4451878000,19.2520621400,"https://rj.transportgzm.pl/v2/rozklady/przystanek/2401074-06401/"
10587,2401062-07002,"Sarnów [tech]",50.3753700800,19.1479324300,"https://rj.transportgzm.pl/v2/rozklady/przystanek/2401062-07002/"
8707,2477011-21901,"Żwaków Cmentarz",50.1041615700,18.9638125600,"https://rj.transportgzm.pl/v2/rozklady/przystanek/2477011-21901/"
3211,2470011-08901,"Wesoła Mostek",50.1961188900,19.1125249600,"https://rj.transportgzm.pl/v2/rozklady/przystanek/2470011-08901/"
4340,2475011-04102t,"Konstantynów Centrum Handlowe",50.2885548800,19.1488222300,"https://rj.transportgzm.pl/v2/rozklady/przystanek/2475011-04102t/"
6153,2477011-03602,"Mąkołowiec Dołowa",50.1376967000,18.9781033700,"https://rj.transportgzm.pl/v2/rozklady/przystanek/2477011-03602/"
12,2408021-04901,"Śmiłowice Łączna",50.1924099200,18.8691520400,"https://rj.transportgzm.pl/v2/rozklady/przystanek/2408021-04901/"
816,2465011-04601,"Gołonóg Zakład Energetyczny",50.3270732100,19.2200493600,"https://rj.transportgzm.pl/v2/rozklady/przystanek/2465011-04601/"
6119,2477011-19002,"Wilkowyje Gospoda",50.1461101600,18.9547467000,"https://rj.transportgzm.pl/v2/rozklady/przystanek/2477011-19002/"
4141,2405021-01601,"Czerwionka Wytw. Mas Bitum. nż",50.3732292800,18.5967099600,"https://rj.transportgzm.pl/v2/rozklady/przystanek/2405021-01601/"
6336,2477011-00202,"Cielmice ks. Szojdy",50.0901090000,19.0084990000,"https://rj.transportgzm.pl/v2/rozklady/przystanek/2477011-00202/"
1771,2470011-06601,"Morgi Szkoła",50.2103717300,19.1294611700,"https://rj.transportgzm.pl/v2/rozklady/przystanek/2470011-06601/"
3943,2412014-00101,"Czerwionka Centrum",50.1475026900,18.6756840600,"https://rj.transportgzm.pl/v2/rozklady/przystanek/2412014-00101/"
10987,2469011-34302,"Załęże Kościół",50.2642891600,19.0008806900,"https://rj.transportgzm.pl/v2/rozklady/przystanek/2469011-34302/"
4426,2475011-03301t,"Klimontów Kolonia Pstrowskiego",50.2736458000,19.1868436100,"https://rj.transportgzm.pl/v2/rozklady/przystanek/2475011-03301t/"
174,2472011-00602,"Bielszowice Most",50.2646142300,18.8226640000,"https://rj.transportgzm.pl/v2/rozklady/przystanek/2472011-00602/"
4917,2408021-05601,"Nowa Wygoda",50.2170142200,18.8352811100,"https://rj.transportgzm.pl/v2/rozklady/przystanek/2408021-05601/"
2810,2401062-05402,"Strzyżowice Skrzyżowanie",50.3882190000,19.0795290000,"https://rj.transportgzm.pl/v2/rozklady/przystanek/2401062-05402/"
10837,2469011-25431,"Szopienice Dolina 5 Stawów",50.2694052300,19.1119348700,"https://rj.transportgzm.pl/v2/rozklady/przystanek/2469011-25431/"
5198,2474011-05901,"Siemianowice Budowlana nż",50.2807738500,19.0451907900,"https://rj.transportgzm.pl/v2/rozklady/przystanek/2474011-05901/"
2120,2471011-03602,"Osiedle Wyzwolenia Domki Fińskie",50.3830027500,18.9326882100,"https://rj.transportgzm.pl/v2/rozklady/przystanek/2471011-03602/"
1476,2413072-02101,"Orzech Kolejowa nż",50.4152928100,18.9206075400,"https://rj.transportgzm.pl/v2/rozklady/przystanek/2413072-02101/"
8709,2477011-03101,"Mąkołowiec Ziębia",50.1372909800,18.9765047800,"https://rj.transportgzm.pl/v2/rozklady/przystanek/2477011-03101/"
9856,2470011-13202,"Mysłowice Szabelnia nż",50.2625258700,19.1305984200,"https://rj.transportgzm.pl/v2/rozklady/przystanek/2470011-13202/"
5862,2413092-08401,"Jaśkowice Osiedle",50.4163092700,18.6668493100,"https://rj.transportgzm.pl/v2/rozklady/przystanek/2413092-08401/"
4693,2478011-11901t,"Zabrze Plac Wolności",50.3071100600,18.7861001200,"https://rj.transportgzm.pl/v2/rozklady/przystanek/2478011-11901t/"
773,2478011-09802,"Zabrze Goethego",50.3055583000,18.7826192300,"https://rj.transportgzm.pl/v2/rozklady/przystanek/2478011-09802/"
11090,2401052-03702,"Mierzęcice Kościuszki",50.4382035800,19.1280031500,"https://rj.transportgzm.pl/v2/rozklady/przystanek/2401052-03702/"
2429,2474011-02501,"Przełajka Kościół",50.3365764000,19.0511560200,"https://rj.transportgzm.pl/v2/rozklady/przystanek/2474011-02501/"
11601,2462011-05702t,"Dąbrowa Miejska Centrum Handlowe",50.3800205500,18.8862967200,"https://rj.transportgzm.pl/v2/rozklady/przystanek/2462011-05702t/"
1835,2472011-07802,"Nowy Bytom Zakłady Odzieżowe",50.2813333000,18.8633070100,"https://rj.transportgzm.pl/v2/rozklady/przystanek/2472011-07802/"
4729,2478011-09701t,"Zabrze Gdańska",50.3155485000,18.7849563300,"https://rj.transportgzm.pl/v2/rozklady/przystanek/2478011-09701t/"
6428,2408021-04101,"Reta Konopnickiej",50.1796015100,18.8989413900,"https://rj.transportgzm.pl/v2/rozklady/przystanek/2408021-04101/"
8549,2401011-01402t,"Będzin Muzeum",50.3291588800,19.1258301900,"https://rj.transportgzm.pl/v2/rozklady/przystanek/2401011-01402t/"
6349,2477011-09102,"Tychy Serdeczna",50.1002293800,19.0454375500,"https://rj.transportgzm.pl/v2/rozklady/przystanek/2477011-09102/"
6239,2477011-11102,"Tychy Stadion",50.1225933200,18.9896261400,"https://rj.transportgzm.pl/v2/rozklady/przystanek/2477011-11102/"
915,GR06901,"granica CHOR - KATO (Gliwicka)",50.2740032403,18.9584116808,"https://rj.transportgzm.pl/v2/rozklady/przystanek/GR06901/"
4491,2474011-03802t,"Siemianowice Mijanka",50.2949842200,19.0246987100,"https://rj.transportgzm.pl/v2/rozklady/przystanek/2474011-03802t/"
1420,2414052-01601,"Kopciowice Ludowa",50.0990621700,19.2017566900,"https://rj.transportgzm.pl/v2/rozklady/przystanek/2414052-01601/"
9738,2469011-40702,"Katowice Skłodowskiej Dworzec",50.2557634300,19.0154182700,"https://rj.transportgzm.pl/v2/rozklady/przystanek/2469011-40702/"
125,2463011-00501,"Chorzów Batory 16 Lipca",50.2759771300,18.9404022400,"https://rj.transportgzm.pl/v2/rozklady/przystanek/2463011-00501/"
8415,2414031-01802,"Górki Poczta",50.1031193200,19.1368263900,"https://rj.transportgzm.pl/v2/rozklady/przystanek/2414031-01802/"
5055,GR07001,"granica CHOR - KATO (DTŚ)",50.2742672557,18.9621303815,"https://rj.transportgzm.pl/v2/rozklady/przystanek/GR07001/"
1906,2413072-01201,"Nowe Chechło Szkoła",50.4513088200,18.9209845200,"https://rj.transportgzm.pl/v2/rozklady/przystanek/2413072-01201/"
3678,2466011-07602,"Gliwice Zajezdnia",50.3049282700,18.7295484300,"https://rj.transportgzm.pl/v2/rozklady/przystanek/2466011-07602/"
3058,2401011-06402,"Łagisza Dąbrowska",50.3449055300,19.1477906400,"https://rj.transportgzm.pl/v2/rozklady/przystanek/2401011-06402/"
2040,2465011-09401,"Mydlice Wolska",50.3190149800,19.1669416200,"https://rj.transportgzm.pl/v2/rozklady/przystanek/2465011-09401/"
5430,2465011-20401,"Rudy Las nż",50.3397222400,19.3930947500,"https://rj.transportgzm.pl/v2/rozklady/przystanek/2465011-20401/"
1015,GR10502,"granica GIER - ZABR (Makoszowy)",50.2579413448,18.7563388634,"https://rj.transportgzm.pl/v2/rozklady/przystanek/GR10502/"
1084,2462011-06202,"Górniki Gospoda",50.3936297600,18.7987768600,"https://rj.transportgzm.pl/v2/rozklady/przystanek/2462011-06202/"
4485,2469011-07602t,"Katowice Szkoła Filmowa UŚ",50.2579543300,19.0308570600,"https://rj.transportgzm.pl/v2/rozklady/przystanek/2469011-07602t/"
2200,2469011-22402,"Panewniki Stare",50.2282240400,18.9199376100,"https://rj.transportgzm.pl/v2/rozklady/przystanek/2469011-22402/"
6588,2408042-00901,"Ornontowice Bujakowska",50.1675936500,18.7787294100,"https://rj.transportgzm.pl/v2/rozklady/przystanek/2408042-00901/"
5584,2405021-02401,"Pyskowice Specjalista nż",50.3811045500,18.6327159400,"https://rj.transportgzm.pl/v2/rozklady/przystanek/2405021-02401/"
6768,2414042-01020,"Bojszowy Nowe Szkoła",50.0515284400,19.0520679700,"https://rj.transportgzm.pl/v2/rozklady/przystanek/2414042-01020/"
1733,2478011-04501,"Mikulczyce Gogolińska",50.3412766000,18.7855851400,"https://rj.transportgzm.pl/v2/rozklady/przystanek/2478011-04501/"
2681,2414031-03902,"Smardzowice Ułańska 51",50.1329312700,19.1470777900,"https://rj.transportgzm.pl/v2/rozklady/przystanek/2414031-03902/"
5161,2408042-01101,"Ornontowice Urząd Gminy",50.1828930500,18.7624430400,"https://rj.transportgzm.pl/v2/rozklady/przystanek/2408042-01101/"
2986,2474011-03601,"Siemianowice Michałkowicka",50.3126298900,19.0122854500,"https://rj.transportgzm.pl/v2/rozklady/przystanek/2474011-03601/"
2537,2413031-01501,"Rojca Muzeum Chleba nż",50.3804272300,18.9032757200,"https://rj.transportgzm.pl/v2/rozklady/przystanek/2413031-01501/"
5789,2413082-03202,"Świniowice Skrzyżowanie",50.5170147000,18.6615777300,"https://rj.transportgzm.pl/v2/rozklady/przystanek/2413082-03202/"
7382,2466011-05202,"Gliwice Plac Piastów",50.2985070300,18.6775886800,"https://rj.transportgzm.pl/v2/rozklady/przystanek/2466011-05202/"
6117,GR21901,"granica TYCH - MIKO (Wilkowyje)",50.1556904764,18.9322936740,"https://rj.transportgzm.pl/v2/rozklady/przystanek/GR21901/"
526,2469011-03501,"Dąbrówka Mała Le Ronda",50.2742396200,19.0566384500,"https://rj.transportgzm.pl/v2/rozklady/przystanek/2469011-03501/"
3806,2413021-01001,"Bibiela Leśniczówka",50.4920023400,19.0004408100,"https://rj.transportgzm.pl/v2/rozklady/przystanek/2413021-01001/"
1691,2462011-08604,"Miechowice Francuska",50.3601673700,18.8386519200,"https://rj.transportgzm.pl/v2/rozklady/przystanek/2462011-08604/"
3550,2475011-14002,"Sosnowiec Urząd Miasta",50.2778969700,19.1347443800,"https://rj.transportgzm.pl/v2/rozklady/przystanek/2475011-14002/"
2008,2466011-09601,"Osiedle Wojska Polskiego Czwartaków",50.2993321600,18.6429667200,"https://rj.transportgzm.pl/v2/rozklady/przystanek/2466011-09601/"
2144,2475011-13202t,"Sosnowiec Ostrogórska",50.2733509400,19.1357421600,"https://rj.transportgzm.pl/v2/rozklady/przystanek/2475011-13202t/"
5317,2465011-21101,"Dąbrowa Górnicza Długosza nż",50.3337302900,19.1952979300,"https://rj.transportgzm.pl/v2/rozklady/przystanek/2465011-21101/"
7883,2413082-00502,"Nowa Wieś Spółdzielnia",50.5298040600,18.7425589900,"https://rj.transportgzm.pl/v2/rozklady/przystanek/2413082-00502/"
1358,2472011-06002,"Kochłowice Osiedle",50.2548335400,18.9124274200,"https://rj.transportgzm.pl/v2/rozklady/przystanek/2472011-06002/"
2068,2471011-02801,"Osiedle Powstańców Parking",50.3666530100,18.9995455700,"https://rj.transportgzm.pl/v2/rozklady/przystanek/2471011-02801/"
3371,2465011-17402,"Ząbkowice Kusocińskiego",50.3752174400,19.2473971600,"https://rj.transportgzm.pl/v2/rozklady/przystanek/2465011-17402/"
8647,2475011-22402t,"Zagórze Centrum Przesiadkowe",50.2939287000,19.1832294000,"https://rj.transportgzm.pl/v2/rozklady/przystanek/2475011-22402t/"
1745,2475011-05301t,"Milowice Podjazdowa",50.2899764500,19.0934169000,"https://rj.transportgzm.pl/v2/rozklady/przystanek/2475011-05301t/"
8842,2465011-23901,"Dąbrowa Górnicza Zawidzkiej",50.3310497800,19.2034947600,"https://rj.transportgzm.pl/v2/rozklady/przystanek/2465011-23901/"
10586,2401062-04104,"Psary OPS",50.3805125000,19.1001357400,"https://rj.transportgzm.pl/v2/rozklady/przystanek/2401062-04104/"
11536,2463011-00801t,"Chorzów Batory Dworzec PKP",50.2789802700,18.9444255600,"https://rj.transportgzm.pl/v2/rozklady/przystanek/2463011-00801t/"
4122,2465011-13902,"Strzemieszyce Taśmociąg nż",50.3062370900,19.3187546500,"https://rj.transportgzm.pl/v2/rozklady/przystanek/2465011-13902/"
8097,2401021-02104,"Czeladź Strefa Ekonomiczna",50.3204878100,19.0910565600,"https://rj.transportgzm.pl/v2/rozklady/przystanek/2401021-02104/"
1064,2401062-00402,"Brzękowice Chopina nż",50.4078000000,19.0944900000,"https://rj.transportgzm.pl/v2/rozklady/przystanek/2401062-00402/"
1014,GR10501,"granica GIER - ZABR (Makoszowy)",50.2577149683,18.7560494594,"https://rj.transportgzm.pl/v2/rozklady/przystanek/GR10501/"
2050,2462011-09901,"Osiedle Ziętka Szymały",50.3934619300,18.8868416500,"https://rj.transportgzm.pl/v2/rozklady/przystanek/2462011-09901/"
7180,2405021-03701,"Pyskowice Jaśkowicka Ogródki Działkowe nż",50.4106044300,18.6483993000,"https://rj.transportgzm.pl/v2/rozklady/przystanek/2405021-03701/"
6138,2477011-02801,"Mąkołowiec Łabędzia",50.1446869400,18.9739835000,"https://rj.transportgzm.pl/v2/rozklady/przystanek/2477011-02801/"
1289,2475011-02901,"Kazimierz Górniczy Kopalnia",50.2930198300,19.2385136800,"https://rj.transportgzm.pl/v2/rozklady/przystanek/2475011-02901/"
402,2469011-07301,"Katowice Francuska WORD",50.2443026700,19.0245544900,"https://rj.transportgzm.pl/v2/rozklady/przystanek/2469011-07301/"
5711,2405042-01502,"Pilchowice Ośrodek Zdrowia nż",50.2128578600,18.5643780000,"https://rj.transportgzm.pl/v2/rozklady/przystanek/2405042-01502/"
6012,2413092-06201,"Wieszowa Skrzyżowanie",50.3855202800,18.7521183200,"https://rj.transportgzm.pl/v2/rozklady/przystanek/2413092-06201/"
2592,2475011-08501,"Pogoń Grota-Roweckiego",50.2865901100,19.1245305300,"https://rj.transportgzm.pl/v2/rozklady/przystanek/2475011-08501/"
8612,2469011-37901,"Piotrowice Osiedle Żurawia",50.2081751700,18.9666020600,"https://rj.transportgzm.pl/v2/rozklady/przystanek/2469011-37901/"
200,2478011-00902,"Biskupice Ogródki Działkowe nż",50.3183235300,18.8035287800,"https://rj.transportgzm.pl/v2/rozklady/przystanek/2478011-00902/"
11618,2476011-01401t,"Piaśniki Osiedle Skałka",50.2987469000,18.9179038700,"https://rj.transportgzm.pl/v2/rozklady/przystanek/2476011-01401t/"
5612,2465011-20201,"Łosień Poboczna",50.3512151000,19.3376481300,"https://rj.transportgzm.pl/v2/rozklady/przystanek/2465011-20201/"
8239,2469011-23005,"Piotrowice Fabryka Maszyn",50.2127370200,18.9732217500,"https://rj.transportgzm.pl/v2/rozklady/przystanek/2469011-23005/"
4347,2475011-12901t,"Sosnowiec Małachowskiego",50.2757186500,19.1327331300,"https://rj.transportgzm.pl/v2/rozklady/przystanek/2475011-12901t/"
7397,GR19802,"granica WOJK - PIEK (Dąbrówka Wlk.)",50.3614683728,19.0130401944,"https://rj.transportgzm.pl/v2/rozklady/przystanek/GR19802/"
6112,2477011-10602,"Tychy Dmowskiego",50.1105470900,18.9834248800,"https://rj.transportgzm.pl/v2/rozklady/przystanek/2477011-10602/"
3416,2475011-16904,"Zagórze Osiedle",50.2897022600,19.1802990200,"https://rj.transportgzm.pl/v2/rozklady/przystanek/2475011-16904/"
4365,2465011-01302,"Dąbrowa Górnicza Huta Bankowa",50.3248950000,19.1743180000,"https://rj.transportgzm.pl/v2/rozklady/przystanek/2465011-01302/"
11659,2463011-04901t,"Chorzów Polna",50.3132944700,18.9482342900,"https://rj.transportgzm.pl/v2/rozklady/przystanek/2463011-04901t/"
871,GR05401,"granica BYTO - TARN (Repty)",50.4052113503,18.8124101822,"https://rj.transportgzm.pl/v2/rozklady/przystanek/GR05401/"
617,2401042-01402,"Dobieszowice Skrzyżowanie",50.3962353300,19.0163624000,"https://rj.transportgzm.pl/v2/rozklady/przystanek/2401042-01402/"
3546,2475011-12302t,"Sosnowiec Dworzec PKP",50.2783083500,19.1270947200,"https://rj.transportgzm.pl/v2/rozklady/przystanek/2475011-12302t/"
545,2471011-01802,"Dołki Szybowa nż",50.3538670900,19.0153431600,"https://rj.transportgzm.pl/v2/rozklady/przystanek/2471011-01802/"
10737,2408031-03801,"Zawiść Skrzyżowanie",50.1202063300,18.8141882200,"https://rj.transportgzm.pl/v2/rozklady/przystanek/2408031-03801/"
10478,2463011-05704,"Chorzów Stadion Śląski",50.2883701200,18.9677249000,"https://rj.transportgzm.pl/v2/rozklady/przystanek/2463011-05704/"
3396,2475011-15801,"Zagórze Dmowskiego",50.3033206300,19.1907703600,"https://rj.transportgzm.pl/v2/rozklady/przystanek/2475011-15801/"
69,2401031-01902,"Żychcice Alfred",50.3665500600,19.0273916500,"https://rj.transportgzm.pl/v2/rozklady/przystanek/2401031-01902/"
2748,2466011-14902,"Stare Gliwice Ogródki Działkowe nż",50.3051578800,18.6290724400,"https://rj.transportgzm.pl/v2/rozklady/przystanek/2466011-14902/"
5483,2469011-33001,"Piotrowice Działowa",50.2008824400,18.9715373300,"https://rj.transportgzm.pl/v2/rozklady/przystanek/2469011-33001/"
4109,2401052-04601,"Mrowieniec",50.4200498100,19.1788314800,"https://rj.transportgzm.pl/v2/rozklady/przystanek/2401052-04601/"
1792,2469011-16401,"Murcki Kołodzieja",50.1935229300,19.0379977200,"https://rj.transportgzm.pl/v2/rozklady/przystanek/2469011-16401/"
2284,2463011-06202,"Chorzów Stary Plac Jana",50.3095562300,18.9736723600,"https://rj.transportgzm.pl/v2/rozklady/przystanek/2463011-06202/"
2485,2478011-06501,"Zaborze Pyki",50.3016279700,18.8412141500,"https://rj.transportgzm.pl/v2/rozklady/przystanek/2478011-06501/"
4400,2475011-05402,"Milowice Zakłady Mięsne",50.2893803800,19.0871143300,"https://rj.transportgzm.pl/v2/rozklady/przystanek/2475011-05402/"
1483,2471011-02601,"Kozłowa Góra Zapora nż",50.4161302900,18.9614307600,"https://rj.transportgzm.pl/v2/rozklady/przystanek/2471011-02601/"
7869,2477011-16801,"Urbanowice Dom Opieki",50.1086030000,19.0522465000,"https://rj.transportgzm.pl/v2/rozklady/przystanek/2477011-16801/"
287,2477011-09402,"Tychy Browar",50.1308264900,18.9912032800,"https://rj.transportgzm.pl/v2/rozklady/przystanek/2477011-09402/"
2715,2474011-04802,"Siemianowice Korfantego",50.3020295700,19.0113305800,"https://rj.transportgzm.pl/v2/rozklady/przystanek/2474011-04802/"
3123,2465011-14601,"Trzebiesławice Modrzewiowa",50.4257420000,19.2607930000,"https://rj.transportgzm.pl/v2/rozklady/przystanek/2465011-14601/"
623,2413092-06601,"Zbrosławice Dom Opieki",50.4133757900,18.7368547700,"https://rj.transportgzm.pl/v2/rozklady/przystanek/2413092-06601/"
3736,2413092-00502,"Miedary Szkoła",50.4528894100,18.7632355000,"https://rj.transportgzm.pl/v2/rozklady/przystanek/2413092-00502/"
2780,2462011-11102,"Stolarzowice Suchogórska nż",50.3965434000,18.8314354400,"https://rj.transportgzm.pl/v2/rozklady/przystanek/2462011-11102/"
8648,2478011-20901,"Grzybowice Przy Ujęciu",50.3615580500,18.7522935600,"https://rj.transportgzm.pl/v2/rozklady/przystanek/2478011-20901/"
420,GR06402,"granica CHEŁ - LĘDZ (Goławiec)",50.1083024888,19.1738841835,"https://rj.transportgzm.pl/v2/rozklady/przystanek/GR06402/"
4969,2401075-04401,"Wojkowice Kościelne Piastowska Skład Złomu",50.4084673100,19.2119470200,"https://rj.transportgzm.pl/v2/rozklady/przystanek/2401075-04401/"
3642,2401021-01601,"Czeladź Szpital",50.3281721900,19.0735415700,"https://rj.transportgzm.pl/v2/rozklady/przystanek/2401021-01601/"
6256,2477011-12002,"Tychy Piłsudskiego",50.1042303800,18.9928984400,"https://rj.transportgzm.pl/v2/rozklady/przystanek/2477011-12002/"
5515,2466011-20301,"Trynek Asnyka",50.2765297900,18.6716019800,"https://rj.transportgzm.pl/v2/rozklady/przystanek/2466011-20301/"
6474,2408011-01601,"Łaziska Średnie Zwycięstwa",50.1424138100,18.8654505900,"https://rj.transportgzm.pl/v2/rozklady/przystanek/2408011-01601/"
1682,2474011-01402,"Michałkowice Bytomska",50.3279088200,18.9976513100,"https://rj.transportgzm.pl/v2/rozklady/przystanek/2474011-01402/"
1144,2472011-04002,"Halemba Nowy Świat",50.2545042700,18.8393747800,"https://rj.transportgzm.pl/v2/rozklady/przystanek/2472011-04002/"
3447,2414031-04202,"Zamoście Posesja 30",50.1394779900,19.0911859200,"https://rj.transportgzm.pl/v2/rozklady/przystanek/2414031-04202/"
496,2401062-01001,"Dąbie Garbacz",50.4124968400,19.1297721800,"https://rj.transportgzm.pl/v2/rozklady/przystanek/2401062-01001/"
5697,2476011-04502,"Świętochłowice Sikorskiego Szkoła",50.2932939900,18.9129256900,"https://rj.transportgzm.pl/v2/rozklady/przystanek/2476011-04502/"
2317,2465011-09903,"Podbuczyny Cmentarz",50.4091504000,19.2499828100,"https://rj.transportgzm.pl/v2/rozklady/przystanek/2465011-09903/"
2959,2470011-06901,"Mysłowice Chopina",50.2437260300,19.1326951700,"https://rj.transportgzm.pl/v2/rozklady/przystanek/2470011-06901/"
2205,2401031-01501,"Wojkowice Park",50.3652401800,19.0366720900,"https://rj.transportgzm.pl/v2/rozklady/przystanek/2401031-01501/"
11634,2462011-04401t,"Bytom Sąd",50.3473988400,18.9176513900,"https://rj.transportgzm.pl/v2/rozklady/przystanek/2462011-04401t/"
1063,2401062-00401,"Brzękowice Chopina nż",50.4076800000,19.0944600000,"https://rj.transportgzm.pl/v2/rozklady/przystanek/2401062-00401/"
8376,2478011-17802,"Grzybowice Kościół",50.3617633800,18.7611984900,"https://rj.transportgzm.pl/v2/rozklady/przystanek/2478011-17802/"
10028,2401011-08801t,"Os. Zamkowe Jasielska",50.3296731600,19.1203784700,"https://rj.transportgzm.pl/v2/rozklady/przystanek/2401011-08801t/"
1130,2472011-03502,"Halemba Kościół",50.2451809100,18.8434195500,"https://rj.transportgzm.pl/v2/rozklady/przystanek/2472011-03502/"
3647,2475011-02102,"Grabocin Kościuszkowców",50.2987770400,19.2534589500,"https://rj.transportgzm.pl/v2/rozklady/przystanek/2475011-02102/"
4820,2401011-07101,"Łagisza Odkrywkowa nż",50.3472059800,19.1308069000,"https://rj.transportgzm.pl/v2/rozklady/przystanek/2401011-07101/"
11612,2476011-00301t,"Chropaczów Ratusz",50.3140051500,18.9133715400,"https://rj.transportgzm.pl/v2/rozklady/przystanek/2476011-00301t/"
6076,2463011-10102,"Maciejkowice Kluczborska",50.3292043800,18.9765811500,"https://rj.transportgzm.pl/v2/rozklady/przystanek/2463011-10102/"
3590,2413092-06701,"Zbrosławice Szkoła",50.4147496500,18.7437296400,"https://rj.transportgzm.pl/v2/rozklady/przystanek/2413092-06701/"
6482,2408011-01702,"Łaziska Średnie Szkoła",50.1371382900,18.8697833700,"https://rj.transportgzm.pl/v2/rozklady/przystanek/2408011-01702/"
879,GR04201,"granica BYTO - CHOR (Oswaldów)",50.3179533035,18.9349390511,"https://rj.transportgzm.pl/v2/rozklady/przystanek/GR04201/"
7285,2478011-10901,"Zabrze Matejki",50.2907441600,18.7800705200,"https://rj.transportgzm.pl/v2/rozklady/przystanek/2478011-10901/"
6448,2408021-01802,"Mikołów Gronie Wspólna",50.1615937600,18.9186978100,"https://rj.transportgzm.pl/v2/rozklady/przystanek/2408021-01802/"
5195,2474011-05702,"Siemianowice Chemiczna 14 nż",50.2838863700,19.0330028300,"https://rj.transportgzm.pl/v2/rozklady/przystanek/2474011-05702/"
44,2413072-00201,"Świerklaniec Park",50.4343016000,18.9467644400,"https://rj.transportgzm.pl/v2/rozklady/przystanek/2413072-00201/"
8040,2478011-16301,"Zabrze Rondo Sybiraków",50.2895583100,18.7826561700,"https://rj.transportgzm.pl/v2/rozklady/przystanek/2478011-16301/"
1574,2401021-00602,"Czeladź Legionów",50.3147862200,19.0641451200,"https://rj.transportgzm.pl/v2/rozklady/przystanek/2401021-00602/"
3020,2466011-09302,"Łabędy Strzelców Bytomskich",50.3463844000,18.6234474500,"https://rj.transportgzm.pl/v2/rozklady/przystanek/2466011-09302/"
2560,2401011-02001t,"Będzin Rondo",50.3248169900,19.1242623100,"https://rj.transportgzm.pl/v2/rozklady/przystanek/2401011-02001t/"
248,2469011-07102,"Bogucice Cmentarz",50.2723676400,19.0469503100,"https://rj.transportgzm.pl/v2/rozklady/przystanek/2469011-07102/"
3105,2465011-08002,"Łosień Las",50.3551543200,19.3065834000,"https://rj.transportgzm.pl/v2/rozklady/przystanek/2465011-08002/"
3309,2401075-04201,"Wojkowice Kościelne Piastowska",50.4074323400,19.2121279500,"https://rj.transportgzm.pl/v2/rozklady/przystanek/2401075-04201/"
2085,2462011-11303,"Stroszek Osiedle",50.3983352600,18.8753163800,"https://rj.transportgzm.pl/v2/rozklady/przystanek/2462011-11303/"
2776,2462011-10904,"Stolarzowice Poczta",50.3900524400,18.8222086400,"https://rj.transportgzm.pl/v2/rozklady/przystanek/2462011-10904/"
6274,2477011-04001,"Paprocany Dymarek",50.0967125600,18.9931988500,"https://rj.transportgzm.pl/v2/rozklady/przystanek/2477011-04001/"
8794,2469011-39701,"Ochojec Spółdzielczości",50.2088714100,18.9893579200,"https://rj.transportgzm.pl/v2/rozklady/przystanek/2469011-39701/"
10654,2469011-24202,"Stara Ligota Stroma",50.2400111700,18.9807212100,"https://rj.transportgzm.pl/v2/rozklady/przystanek/2469011-24202/"
7829,2405042-03002,"Stanica Las nż",50.2061453900,18.5281467200,"https://rj.transportgzm.pl/v2/rozklady/przystanek/2405042-03002/"
2939,2466011-11101,"Obrońców Pokoju Wiśniowa",50.3210426800,18.6888432200,"https://rj.transportgzm.pl/v2/rozklady/przystanek/2466011-11101/"
1121,2472011-03101,"Halemba Elektrownia",50.2368916500,18.8486599700,"https://rj.transportgzm.pl/v2/rozklady/przystanek/2472011-03101/"
672,2478011-12301,"Zabrze Przystankowa",50.3259704500,18.7857353400,"https://rj.transportgzm.pl/v2/rozklady/przystanek/2478011-12301/"
3618,2466011-05901,"Gliwice Słowackiego",50.2879100100,18.6544150100,"https://rj.transportgzm.pl/v2/rozklady/przystanek/2466011-05901/"
1756,2475011-05601,"Modrzejów Rynek",50.2414481000,19.1494550900,"https://rj.transportgzm.pl/v2/rozklady/przystanek/2475011-05601/"
5047,2463011-01903t,"Chorzów Batory Zajezdnia",50.2747538900,18.9551222100,"https://rj.transportgzm.pl/v2/rozklady/przystanek/2463011-01903t/"
3898,2413062-01002,"Ożarowice Kościuszki",50.4614857500,19.0452658900,"https://rj.transportgzm.pl/v2/rozklady/przystanek/2413062-01002/"
6144,2477011-03502,"Mąkołowiec Przepiórek",50.1387144200,18.9726638500,"https://rj.transportgzm.pl/v2/rozklady/przystanek/2477011-03502/"
1379,2465011-05502,"Kolonia Piekło Pogoria III",50.3614211700,19.2106079800,"https://rj.transportgzm.pl/v2/rozklady/przystanek/2465011-05502/"
2403,2475011-10202,"Porąbka Wiejska",50.2878517400,19.2212677000,"https://rj.transportgzm.pl/v2/rozklady/przystanek/2475011-10202/"
4475,2469011-29502t,"Zawodzie Centrum Przesiadkowe",50.2603385400,19.0633462900,"https://rj.transportgzm.pl/v2/rozklady/przystanek/2469011-29502t/"
8054,2469011-06904,"Józefowiec Ściegiennego",50.2780135300,19.0072965400,"https://rj.transportgzm.pl/v2/rozklady/przystanek/2469011-06904/"
1226,2469011-06102,"Janów Strumienna",50.2353036900,19.0912067600,"https://rj.transportgzm.pl/v2/rozklady/przystanek/2469011-06102/"
6022,2405065-02801,"Smolnica Przedszkole",50.2511905800,18.5638201000,"https://rj.transportgzm.pl/v2/rozklady/przystanek/2405065-02801/"
128,2463011-00601,"Chorzów Batory Urząd Skarbowy",50.2828267700,18.9374685200,"https://rj.transportgzm.pl/v2/rozklady/przystanek/2463011-00601/"
585,2475011-00802,"Dańdówka Osiedle",50.2625128000,19.1736578700,"https://rj.transportgzm.pl/v2/rozklady/przystanek/2475011-00802/"
7966,2413082-03402,"Wojska Podlesie",50.4887020600,18.6542070200,"https://rj.transportgzm.pl/v2/rozklady/przystanek/2413082-03402/"
1970,2408042-00701,"Ornontowice Ogródki Działkowe",50.1688000100,18.7727326100,"https://rj.transportgzm.pl/v2/rozklady/przystanek/2408042-00701/"
5279,2469011-32002,"Kokociniec Płochy",50.2338103600,18.9634799700,"https://rj.transportgzm.pl/v2/rozklady/przystanek/2469011-32002/"
3097,2465011-07902,"Łosień Koksownicza Parking",50.3522730000,19.3533120000,"https://rj.transportgzm.pl/v2/rozklady/przystanek/2465011-07902/"
4734,2478011-04202t,"Mikulczyce Aleja Szczęście Ludwika",50.3296594600,18.7885719500,"https://rj.transportgzm.pl/v2/rozklady/przystanek/2478011-04202t/"
3448,2414031-04201,"Zamoście Posesja 30",50.1395330000,19.0910840000,"https://rj.transportgzm.pl/v2/rozklady/przystanek/2414031-04201/"
4034,2401052-03601,"Sadowie OSP",50.4379702100,19.1220544800,"https://rj.transportgzm.pl/v2/rozklady/przystanek/2401052-03601/"
722,2405032-01002,"Przyszowice Przejazd Kolejowy nż",50.2363948200,18.7366938300,"https://rj.transportgzm.pl/v2/rozklady/przystanek/2405032-01002/"
6286,2477011-11302,"Tychy Edukacji",50.1181838300,18.9971256000,"https://rj.transportgzm.pl/v2/rozklady/przystanek/2477011-11302/"
2964,2469011-02301t,"Burowiec",50.2682805700,19.0792870300,"https://rj.transportgzm.pl/v2/rozklady/przystanek/2469011-02301t/"
5408,2469011-00103,"Katowice Dworzec",50.2584725000,19.0176585000,"https://rj.transportgzm.pl/v2/rozklady/przystanek/2469011-00103/"
6682,2414011-02501,"Bieruń Rudnik",50.1031844000,19.0975582300,"https://rj.transportgzm.pl/v2/rozklady/przystanek/2414011-02501/"
5643,2401062-05902,"Gródków Centrum Dystrybucyjne",50.3600436100,19.1151392800,"https://rj.transportgzm.pl/v2/rozklady/przystanek/2401062-05902/"
3166,2465011-16102,"Ujejsce Górka",50.3880588700,19.2420542000,"https://rj.transportgzm.pl/v2/rozklady/przystanek/2465011-16102/"
3559,2462011-01215,"Bytom Dworzec",50.3442044200,18.9124965400,"https://rj.transportgzm.pl/v2/rozklady/przystanek/2462011-01215/"
2913,2471011-04501,"Szarlej Osiedle Sowińskiego",50.3712993100,18.9557337500,"https://rj.transportgzm.pl/v2/rozklady/przystanek/2471011-04501/"
1092,2478011-09902,"Zabrze Grunwaldzka",50.3115455300,18.7605941600,"https://rj.transportgzm.pl/v2/rozklady/przystanek/2478011-09902/"
4588,2462011-08001,"Łagiewniki Szyby Rycerskie nż",50.3316551900,18.9270341100,"https://rj.transportgzm.pl/v2/rozklady/przystanek/2462011-08001/"
2961,2469011-24501,"Szopienice Bednorza",50.2638255200,19.0874516700,"https://rj.transportgzm.pl/v2/rozklady/przystanek/2469011-24501/"
6000,GR73801,"granica MIER - OŻAR (Ogr. Działkowe I)",50.4634150307,19.0899528144,"https://rj.transportgzm.pl/v2/rozklady/przystanek/GR73801/"
5628,2462011-13701,"Łagiewniki Adamka",50.3244155900,18.9332353800,"https://rj.transportgzm.pl/v2/rozklady/przystanek/2462011-13701/"
4063,2401011-05501,"Grodziec Słowackiego",50.3508618400,19.0809714500,"https://rj.transportgzm.pl/v2/rozklady/przystanek/2401011-05501/"
903,GR10301,"granica GIER - GLIW (Bojków)",50.2352642236,18.7204977257,"https://rj.transportgzm.pl/v2/rozklady/przystanek/GR10301/"
5802,2405082-02201,"Wielowieś Kościelna",50.5115295500,18.6240160800,"https://rj.transportgzm.pl/v2/rozklady/przystanek/2405082-02201/"
1917,2414021-00702,"Imielin Hallera",50.1397397400,19.1940165700,"https://rj.transportgzm.pl/v2/rozklady/przystanek/2414021-00702/"
5511,2466011-07604,"Gliwice Zajezdnia",50.3047734000,18.7305140200,"https://rj.transportgzm.pl/v2/rozklady/przystanek/2466011-07604/"
2853,2465011-12901,"Strzemieszyce Małe Spółdzielnia",50.3272410000,19.3195600000,"https://rj.transportgzm.pl/v2/rozklady/przystanek/2465011-12901/"
998,GR08101,"granica CZEL - SOSN (Milowice)",50.2958388334,19.0744809405,"https://rj.transportgzm.pl/v2/rozklady/przystanek/GR08101/"
7884,2413082-00601,"Nowa Wieś Pętla",50.5274043000,18.7525887600,"https://rj.transportgzm.pl/v2/rozklady/przystanek/2413082-00601/"
5323,2463011-05803,"Chorzów Stary Bożogrobców",50.3026490600,18.9746594200,"https://rj.transportgzm.pl/v2/rozklady/przystanek/2463011-05803/"
7181,2405021-03702,"Pyskowice Jaśkowicka Ogródki Działkowe nż",50.4106368400,18.6480307300,"https://rj.transportgzm.pl/v2/rozklady/przystanek/2405021-03702/"
11209,2462011-05902,"Dąbrowa Miejska Leśna nż",50.3700131100,18.8951325400,"https://rj.transportgzm.pl/v2/rozklady/przystanek/2462011-05902/"
8843,2465011-23902,"Dąbrowa Górnicza Zawidzkiej",50.3308580100,19.2038380800,"https://rj.transportgzm.pl/v2/rozklady/przystanek/2465011-23902/"
527,2469011-03502,"Dąbrówka Mała Le Ronda",50.2746814900,19.0578246100,"https://rj.transportgzm.pl/v2/rozklady/przystanek/2469011-03502/"
1478,2471011-02502,"Kozłowa Góra Tarnogórska",50.4068385900,18.9475369200,"https://rj.transportgzm.pl/v2/rozklady/przystanek/2471011-02502/"
4791,2413041-06103,"Bobrowniki Śląskie",50.4237448400,18.8684852600,"https://rj.transportgzm.pl/v2/rozklady/przystanek/2413041-06103/"
5012,2401075-04302,"Wojkowice Kościelne Remiza",50.4131415200,19.2159474200,"https://rj.transportgzm.pl/v2/rozklady/przystanek/2401075-04302/"
3457,2469011-27902,"Zarzecze Węgorzy",50.1824357900,18.9446783000,"https://rj.transportgzm.pl/v2/rozklady/przystanek/2469011-27902/"
6386,2477011-13301,"Tychy Osiedle Wygoda",50.1023310800,19.0646528900,"https://rj.transportgzm.pl/v2/rozklady/przystanek/2477011-13301/"
5436,2401075-07801,"Marcinków I",50.4250585900,19.1903197500,"https://rj.transportgzm.pl/v2/rozklady/przystanek/2401075-07801/"
902,GR26202,"granica MIKO - ORNO (Dworcowa)",50.1770961799,18.7825973576,"https://rj.transportgzm.pl/v2/rozklady/przystanek/GR26202/"
3182,2472011-09801t,"Ruda Urząd Skarbowy",50.3009303500,18.8694546300,"https://rj.transportgzm.pl/v2/rozklady/przystanek/2472011-09801t/"
3844,2413062-04002,"Pyrzowice Szkoła",50.4617293300,19.0710523100,"https://rj.transportgzm.pl/v2/rozklady/przystanek/2413062-04002/"
1816,2472011-07201,"Nowy Bytom Chorzowska",50.2796456100,18.8968169600,"https://rj.transportgzm.pl/v2/rozklady/przystanek/2472011-07201/"
1385,2475011-04001,"Kolonia Wągródka nż",50.2714654700,19.2890187400,"https://rj.transportgzm.pl/v2/rozklady/przystanek/2475011-04001/"
4901,2470011-03201,"Dziećkowice Ośrodek Zdrowia",50.1750772800,19.2201411700,"https://rj.transportgzm.pl/v2/rozklady/przystanek/2470011-03201/"
4918,2408021-05602,"Nowa Wygoda",50.2162384500,18.8366329400,"https://rj.transportgzm.pl/v2/rozklady/przystanek/2408021-05602/"
393,2474011-00802,"Bytków Osiedle Młodych",50.3065755800,19.0102040500,"https://rj.transportgzm.pl/v2/rozklady/przystanek/2474011-00802/"
569,2475011-01401,"Dębowa Góra Kolonia Ludmiła",50.2585716600,19.1491317500,"https://rj.transportgzm.pl/v2/rozklady/przystanek/2475011-01401/"
359,2466011-02001,"Gliwice błog. Czesława",50.2926842600,18.6942458100,"https://rj.transportgzm.pl/v2/rozklady/przystanek/2466011-02001/"
6897,2469011-29301t,"Wełnowiec Konduktorska [tech]",50.2809658100,19.0204715500,"https://rj.transportgzm.pl/v2/rozklady/przystanek/2469011-29301t/"
2217,2478011-05801,"Pawłów Dom Kultury",50.2806668800,18.8084590200,"https://rj.transportgzm.pl/v2/rozklady/przystanek/2478011-05801/"
1026,2465011-04902,"Grabocin Sosnowiecka",50.3027107400,19.2639088400,"https://rj.transportgzm.pl/v2/rozklady/przystanek/2465011-04902/"
865,GR05901,"granica BYTO - PIEK (Szarlej)",50.3610497692,18.9349292170,"https://rj.transportgzm.pl/v2/rozklady/przystanek/GR05901/"
1192,2469011-02702,"Dąb Huta Baildon",50.2674466400,19.0092384600,"https://rj.transportgzm.pl/v2/rozklady/przystanek/2469011-02702/"
584,2475011-00801t,"Dańdówka Osiedle",50.2622754800,19.1731858000,"https://rj.transportgzm.pl/v2/rozklady/przystanek/2475011-00801t/"
5391,2401052-00601,"Boguchwałowice Sklep",50.4547413900,19.1842150400,"https://rj.transportgzm.pl/v2/rozklady/przystanek/2401052-00601/"
4722,2478011-12601t,"Guido Kopalnia Zabytkowa",50.2898333200,18.7925986500,"https://rj.transportgzm.pl/v2/rozklady/przystanek/2478011-12601t/"
553,2471011-01102,"Dąbrówka Wielka",50.3455559700,19.0084337900,"https://rj.transportgzm.pl/v2/rozklady/przystanek/2471011-01102/"
2382,2401042-02601,"Pomłynie Spółdzielnia nż",50.4092226400,19.0571513800,"https://rj.transportgzm.pl/v2/rozklady/przystanek/2401042-02601/"
516,2466011-02502,"Gliwice Dąbrowskiego",50.2977150400,18.6924540900,"https://rj.transportgzm.pl/v2/rozklady/przystanek/2466011-02502/"
10,2408021-05201,"Śmiłowice Biblioteka",50.2002533600,18.8623392300,"https://rj.transportgzm.pl/v2/rozklady/przystanek/2408021-05201/"
1250,2466011-10601,"Osiedle Kopernika Oriona",50.3257649700,18.6610305600,"https://rj.transportgzm.pl/v2/rozklady/przystanek/2466011-10601/"
11056,2469011-02502,"Burowiec Szpital",50.2719658000,19.0864968000,"https://rj.transportgzm.pl/v2/rozklady/przystanek/2469011-02502/"
5528,2478011-09702,"Zabrze Gdańska",50.3158156900,18.7849456000,"https://rj.transportgzm.pl/v2/rozklady/przystanek/2478011-09702/"
2309,2478011-11801,"Zabrze Plac Teatralny",50.3103441900,18.7856495100,"https://rj.transportgzm.pl/v2/rozklady/przystanek/2478011-11801/"
3805,2413021-01201,"Bibiela Kościół",50.5041775200,19.0094637600,"https://rj.transportgzm.pl/v2/rozklady/przystanek/2413021-01201/"
6683,2414011-02703,"Bieruń Strefa",50.1013607500,19.0986525800,"https://rj.transportgzm.pl/v2/rozklady/przystanek/2414011-02703/"
2349,2401075-05302,"Podwarpie Bar",50.4277702700,19.2121279500,"https://rj.transportgzm.pl/v2/rozklady/przystanek/2401075-05302/"
2425,2414052-00801,"Chełm Śląski Przejazd Kolejowy",50.1074595500,19.1837740700,"https://rj.transportgzm.pl/v2/rozklady/przystanek/2414052-00801/"
6030,2405064-00201,"Sośnicowice Chorynskowice nż",50.2691785300,18.5557043600,"https://rj.transportgzm.pl/v2/rozklady/przystanek/2405064-00201/"
778,2478011-09808,"Zabrze Goethego",50.3053284500,18.7822377400,"https://rj.transportgzm.pl/v2/rozklady/przystanek/2478011-09808/"
5677,2475011-20702,"Bobrek Logistyczna",50.2565384300,19.1890740000,"https://rj.transportgzm.pl/v2/rozklady/przystanek/2475011-20702/"
11608,2462011-03101t,"Bytom Olimpijska",50.3555277900,18.9062416300,"https://rj.transportgzm.pl/v2/rozklady/przystanek/2462011-03101t/"
2271,2469011-23301,"Piotrowice Skrzyżowanie",50.2074500600,18.9742839100,"https://rj.transportgzm.pl/v2/rozklady/przystanek/2469011-23301/"
1997,2475011-06601,"Osiedle Bór Bloki",50.2432185800,19.1751712500,"https://rj.transportgzm.pl/v2/rozklady/przystanek/2475011-06601/"
10958,2469011-07701t,"Katowice Dąbrówki",50.2618612300,19.0088307600,"https://rj.transportgzm.pl/v2/rozklady/przystanek/2469011-07701t/"
5440,2469011-31902,"Dąbrówka Mała Żyzna nż",50.2790255300,19.0744054100,"https://rj.transportgzm.pl/v2/rozklady/przystanek/2469011-31902/"
890,GR09301,"granica DĄBR - SŁAW (Groniec)",50.2990207269,19.3018456990,"https://rj.transportgzm.pl/v2/rozklady/przystanek/GR09301/"
5765,2413082-00202,"Tworóg Zamek",50.5321978500,18.7201177800,"https://rj.transportgzm.pl/v2/rozklady/przystanek/2413082-00202/"
1208,2478011-06401,"Zaborze Janika",50.2992430700,18.8301634500,"https://rj.transportgzm.pl/v2/rozklady/przystanek/2478011-06401/"
2288,2466011-05203,"Gliwice Plac Piastów",50.2983658300,18.6766302900,"https://rj.transportgzm.pl/v2/rozklady/przystanek/2466011-05203/"
6350,2477011-08502,"Tychy LEAR",50.1018397400,19.0435278200,"https://rj.transportgzm.pl/v2/rozklady/przystanek/2477011-08502/"
7408,2475011-12002,"Sosnowiec Aleja Zwycięstwa",50.2795616300,19.1301785400,"https://rj.transportgzm.pl/v2/rozklady/przystanek/2475011-12002/"
7365,2474011-06002,"Siemianowice Budowlana Końcowy",50.2765394600,19.0476813500,"https://rj.transportgzm.pl/v2/rozklady/przystanek/2474011-06002/"
11033,2408052-01101,"Gostyń Kuźnia",50.0978330000,18.8837520000,"https://rj.transportgzm.pl/v2/rozklady/przystanek/2408052-01101/"
1161,2478011-02101,"Helenka Kościół",50.3786822900,18.8091349300,"https://rj.transportgzm.pl/v2/rozklady/przystanek/2478011-02101/"
3119,2466011-17001,"Trynek Ogródki Działkowe nż",50.2701214500,18.6610722500,"https://rj.transportgzm.pl/v2/rozklady/przystanek/2466011-17001/"
869,GR16801,"granica RADZ - TARN (Bobrowniki)",50.4190955136,18.8830837582,"https://rj.transportgzm.pl/v2/rozklady/przystanek/GR16801/"
2516,2413041-05701,"Tarnowskie Góry Torowa",50.4276552100,18.8376092700,"https://rj.transportgzm.pl/v2/rozklady/przystanek/2413041-05701/"
2636,2475011-11302,"Sielec Osiedle Zamkowa",50.2863022000,19.1488098800,"https://rj.transportgzm.pl/v2/rozklady/przystanek/2475011-11302/"
973,GR17902,"granica CZEL - SIEM (Bańgów)",50.3207362898,19.0505264391,"https://rj.transportgzm.pl/v2/rozklady/przystanek/GR17902/"
859,GR03501,"granica BOBR - OŻAR (Podtąpkowice)",50.4459389813,19.0220327909,"https://rj.transportgzm.pl/v2/rozklady/przystanek/GR03501/"
1517,2401031-01102,"Wojkowice Krzyżówka",50.3707655600,19.0364467800,"https://rj.transportgzm.pl/v2/rozklady/przystanek/2401031-01102/"
1793,2469011-16402,"Murcki Kołodzieja",50.1934374800,19.0381097500,"https://rj.transportgzm.pl/v2/rozklady/przystanek/2469011-16402/"
3954,2412015-02202,"Stanowice Szkoła",50.1280960100,18.6667275700,"https://rj.transportgzm.pl/v2/rozklady/przystanek/2412015-02202/"
11603,2462011-05502t,"Bytom Zamłynie",50.3423026500,18.9142369300,"https://rj.transportgzm.pl/v2/rozklady/przystanek/2462011-05502t/"
855,GR03801,"granica BOBR - PIEK (Józefka)",50.3990138286,18.9753895794,"https://rj.transportgzm.pl/v2/rozklady/przystanek/GR03801/"
10536,2469011-21401,"Osiedle Witosa Sławka",50.2659241500,18.9733826900,"https://rj.transportgzm.pl/v2/rozklady/przystanek/2469011-21401/"
5098,2413092-07501,"Zbrosławice Rozwidlenie",50.4274467300,18.7675177800,"https://rj.transportgzm.pl/v2/rozklady/przystanek/2413092-07501/"
5394,2474011-06601,"Siemianowice Chemiczna 1A nż",50.2816274500,19.0394462300,"https://rj.transportgzm.pl/v2/rozklady/przystanek/2474011-06601/"
2800,2401062-04702,"Strzyżowice Belna 125",50.3898198700,19.0996885200,"https://rj.transportgzm.pl/v2/rozklady/przystanek/2401062-04702/"
8708,2477011-02601,"Mąkołowiec Bociania",50.1474510000,18.9815130000,"https://rj.transportgzm.pl/v2/rozklady/przystanek/2477011-02601/"
590,2475011-01102t,"Dańdówka Skrzyżowanie",50.2689622200,19.1759323800,"https://rj.transportgzm.pl/v2/rozklady/przystanek/2475011-01102t/"
854,GR01402,"granica BĘDZ - WOJK (Boleradz)",50.3491390858,19.0608719290,"https://rj.transportgzm.pl/v2/rozklady/przystanek/GR01402/"
4119,2401052-00402,"Boguchwałowice",50.4542307600,19.1730164500,"https://rj.transportgzm.pl/v2/rozklady/przystanek/2401052-00402/"
3417,2475011-16903,"Zagórze Osiedle",50.2905453800,19.1793870700,"https://rj.transportgzm.pl/v2/rozklady/przystanek/2475011-16903/"
1172,2414031-02802,"Hołdunów Imielińska",50.1517926600,19.1345226900,"https://rj.transportgzm.pl/v2/rozklady/przystanek/2414031-02802/"
2795,2478011-13101,"Zabrze Struga",50.2898119300,18.7762403200,"https://rj.transportgzm.pl/v2/rozklady/przystanek/2478011-13101/"
